# Retrieved from http://navitia2-ws.ctp.dev.canaltp.fr/v1/coverage/bourgogne/stop_areas?count=10000

{"stop_areas": [{"comment": "", "name": "SAINT JEAN GAILLON", "coord": {"lat": "46.958275", "lon": "4.304462"}, "id": "stop_area:CAN:SA:STJEAG"}, {"comment": "", "name": "SAINT BLAISE", "coord": {"lat": "46.939368", "lon": "4.29835"}, "id": "stop_area:CAN:SA:STBLAI"}, {"comment": "", "name": "TENNIS SAINT BLAISE", "coord": {"lat": "46.937513", "lon": "4.299801"}, "id": "stop_area:CAN:SA:TENSTB"}, {"comment": "", "name": "LA MINE", "coord": {"lat": "46.938452", "lon": "4.303303"}, "id": "stop_area:CAN:SA:MINE"}, {"comment": "", "name": "LA FORET", "coord": {"lat": "46.940239", "lon": "4.309321"}, "id": "stop_area:CAN:SA:FORET"}, {"comment": "", "name": "PIERRE DE COUHARD", "coord": {"lat": "46.940607", "lon": "4.313263"}, "id": "stop_area:CAN:SA:PIECOU"}, {"comment": "", "name": "SAINTE ANNE", "coord": {"lat": "46.946291", "lon": "4.303537"}, "id": "stop_area:CAN:SA:STANNE"}, {"comment": "", "name": "CLINIQUE DU PARC", "coord": {"lat": "46.949753", "lon": "4.293151"}, "id": "stop_area:CAN:SA:CLIPAR"}, {"comment": "", "name": "RUE DU 19 MARS", "coord": {"lat": "46.947832", "lon": "4.293672"}, "id": "stop_area:CAN:SA:19MARS"}, {"comment": "", "name": "BOULEVARD MAC MAHON", "coord": {"lat": "46.945686", "lon": "4.2973"}, "id": "stop_area:CAN:SA:BOUMAM"}, {"comment": "", "name": "SITE LECLERC", "coord": {"lat": "46.93818", "lon": "4.293683"}, "id": "stop_area:CAN:SA:SITLEC"}, {"comment": "", "name": "CATHEDRALE", "coord": {"lat": "46.944589", "lon": "4.299106"}, "id": "stop_area:CAN:SA:CATHED"}, {"comment": "", "name": "URSULINES", "coord": {"lat": "46.942905", "lon": "4.299958"}, "id": "stop_area:CAN:SA:URSULI"}, {"comment": "", "name": "Fontaine", "coord": {"lat": "47.818145", "lon": "3.554608"}, "id": "stop_area:CAX:SA:1"}, {"comment": "", "name": "Chatenoy", "coord": {"lat": "47.8145", "lon": "3.557593"}, "id": "stop_area:CAX:SA:3"}, {"comment": "", "name": "Saint Sim\u00e9on Nord", "coord": {"lat": "47.812155", "lon": "3.555583"}, "id": "stop_area:CAX:SA:5"}, {"comment": "", "name": "CES Lyc\u00e9e St.Joseph", "coord": {"lat": "47.811415", "lon": "3.556723"}, "id": "stop_area:CAX:SA:467"}, {"comment": "", "name": "Heurtebise", "coord": {"lat": "47.809795", "lon": "3.553498"}, "id": "stop_area:CAX:SA:7"}, {"comment": "", "name": "Foulon", "coord": {"lat": "47.80827", "lon": "3.552538"}, "id": "stop_area:CAX:SA:9"}, {"comment": "", "name": "Gouraud", "coord": {"lat": "47.805335", "lon": "3.554833"}, "id": "stop_area:CAX:SA:11"}, {"comment": "", "name": "H\u00f4pital", "coord": {"lat": "47.802455", "lon": "3.552868"}, "id": "stop_area:CAX:SA:13"}, {"comment": "", "name": "Fleurus", "coord": {"lat": "47.801045", "lon": "3.554998"}, "id": "stop_area:CAX:SA:15"}, {"comment": "", "name": "Les Rosoirs", "coord": {"lat": "47.802005", "lon": "3.556873"}, "id": "stop_area:CAX:SA:17"}, {"comment": "", "name": "Coll\u00e8ge Paul Bert", "coord": {"lat": "47.785855", "lon": "3.584978"}, "id": "stop_area:CAX:SA:285"}, {"comment": "", "name": "Bourgogne", "coord": {"lat": "47.78492", "lon": "3.584623"}, "id": "stop_area:CAX:SA:283"}, {"comment": "", "name": "Stade Arbre Sec", "coord": {"lat": "47.78775", "lon": "3.585188"}, "id": "stop_area:CAX:SA:287"}, {"comment": "", "name": "Carri\u00e8res", "coord": {"lat": "47.78788", "lon": "3.581908"}, "id": "stop_area:CAX:SA:289"}, {"comment": "", "name": "Louis Richard", "coord": {"lat": "47.7871", "lon": "3.575178"}, "id": "stop_area:CAX:SA:291"}, {"comment": "", "name": "Arboretum", "coord": {"lat": "47.786005", "lon": "3.570918"}, "id": "stop_area:CAX:SA:293"}, {"comment": "", "name": "Pont de Vallan", "coord": {"lat": "47.786785", "lon": "3.566878"}, "id": "stop_area:CAX:SA:295"}, {"comment": "", "name": "Bourneil", "coord": {"lat": "47.790525", "lon": "3.568068"}, "id": "stop_area:CAX:SA:297"}, {"comment": "", "name": "Saint Am\u00e2tre", "coord": {"lat": "47.790155", "lon": "3.565293"}, "id": "stop_area:CAX:SA:192"}, {"comment": "", "name": "Arquebuse", "coord": {"lat": "47.79249", "lon": "3.567208"}, "id": "stop_area:CAX:SA:31"}, {"comment": "", "name": "Les Piedalloues", "coord": {"lat": "47.78123", "lon": "3.580728"}, "id": "stop_area:CAX:SA:273"}, {"comment": "", "name": "Guyenne", "coord": {"lat": "47.78025", "lon": "3.585043"}, "id": "stop_area:CAX:SA:275"}, {"comment": "", "name": "Savoie", "coord": {"lat": "47.781125", "lon": "3.588118"}, "id": "stop_area:CAX:SA:277"}, {"comment": "", "name": "Chantemerle", "coord": {"lat": "47.782705", "lon": "3.590443"}, "id": "stop_area:CAX:SA:279"}, {"comment": "", "name": "La Noue", "coord": {"lat": "47.783685", "lon": "3.587903"}, "id": "stop_area:CAX:SA:281"}, {"comment": "", "name": "Egleny", "coord": {"lat": "47.79626", "lon": "3.564198"}, "id": "stop_area:CAX:SA:86"}, {"comment": "", "name": "11 Novembre", "coord": {"lat": "47.79481", "lon": "3.564438"}, "id": "stop_area:CAX:SA:29"}, {"comment": "", "name": "Vauban", "coord": {"lat": "47.798325", "lon": "3.565403"}, "id": "stop_area:CAX:SA:27"}, {"comment": "", "name": "Porte de Paris", "coord": {"lat": "47.80029", "lon": "3.567218"}, "id": "stop_area:CAX:SA:25"}, {"comment": "", "name": "Gare Routi\u00e8re", "coord": {"lat": "47.80104", "lon": "3.565588"}, "id": "stop_area:CAX:SA:23"}, {"comment": "", "name": "Lamartine", "coord": {"lat": "47.80162", "lon": "3.576108"}, "id": "stop_area:CAX:SA:303"}, {"comment": "", "name": "Champoulains", "coord": {"lat": "47.80519", "lon": "3.579683"}, "id": "stop_area:CAX:SA:305"}, {"comment": "", "name": "Moulin du Pr\u00e9sident", "coord": {"lat": "47.808945", "lon": "3.581208"}, "id": "stop_area:CAX:SA:307"}, {"comment": "", "name": "Denis Papin", "coord": {"lat": "47.810865", "lon": "3.583128"}, "id": "stop_area:CAX:SA:309"}, {"comment": "", "name": "Lumi\u00e8re", "coord": {"lat": "47.81307", "lon": "3.585708"}, "id": "stop_area:CAX:SA:311"}, {"comment": "", "name": "Mermoz", "coord": {"lat": "47.817585", "lon": "3.584888"}, "id": "stop_area:CAX:SA:313"}, {"comment": "", "name": "Maison de l'Entreprise", "coord": {"lat": "47.821575", "lon": "3.583619"}, "id": "stop_area:CAX:SA:315"}, {"comment": "", "name": "Universit\u00e9s", "coord": {"lat": "47.821335", "lon": "3.581623"}, "id": "stop_area:CAX:SA:172"}, {"comment": "", "name": "Saint Quentin", "coord": {"lat": "47.8362", "lon": "3.585234"}, "id": "stop_area:CAX:SA:317"}, {"comment": "", "name": "Pierre Curie", "coord": {"lat": "47.840195", "lon": "3.584419"}, "id": "stop_area:CAX:SA:319"}, {"comment": "", "name": "Carron", "coord": {"lat": "47.842575", "lon": "3.583674"}, "id": "stop_area:CAX:SA:321"}, {"comment": "", "name": "Commanderie", "coord": {"lat": "47.84522", "lon": "3.582454"}, "id": "stop_area:CAX:SA:323"}, {"comment": "", "name": "Bretagne", "coord": {"lat": "47.84779", "lon": "3.582484"}, "id": "stop_area:CAX:SA:325"}, {"comment": "", "name": "Ile de France", "coord": {"lat": "47.85023", "lon": "3.584769"}, "id": "stop_area:CAX:SA:327"}, {"comment": "", "name": "Mairie Mon\u00e9teau", "coord": {"lat": "47.85017", "lon": "3.578824"}, "id": "stop_area:CAX:SA:154"}, {"comment": "", "name": "Stade Moneteau", "coord": {"lat": "47.84698", "lon": "3.579354"}, "id": "stop_area:CAX:SA:156"}, {"comment": "", "name": "REPUBLIQUE", "coord": {"lat": "46.962643", "lon": "4.311338"}, "id": "stop_area:CAN:SA:REPUBL"}, {"comment": "", "name": "SALLE POLYVALENTE", "coord": {"lat": "46.964934", "lon": "4.313158"}, "id": "stop_area:CAN:SA:SALPOL"}, {"comment": "", "name": "TENNIS", "coord": {"lat": "46.966605", "lon": "4.309212"}, "id": "stop_area:CAN:SA:TENNIS"}, {"comment": "", "name": "PRIEURE SAINT MARTIN", "coord": {"lat": "46.964901", "lon": "4.307211"}, "id": "stop_area:CAN:SA:PRISTM"}, {"comment": "", "name": "MAIRIE SAINT PANTALEON", "coord": {"lat": "46.961298", "lon": "4.308719"}, "id": "stop_area:CAN:SA:MAISTP"}, {"comment": "", "name": "PORTE SAINT ANDRE", "coord": {"lat": "46.957458", "lon": "4.306443"}, "id": "stop_area:CAN:SA:PORSTA"}, {"comment": "", "name": "CROIX VERTE", "coord": {"lat": "46.955261", "lon": "4.305232"}, "id": "stop_area:CAN:SA:CROVER"}, {"comment": "", "name": "HOPITAL SITE LATOUCHE", "coord": {"lat": "46.951791", "lon": "4.302893"}, "id": "stop_area:CAN:SA:HOPLAT"}, {"comment": "", "name": "Lycee militaire", "coord": {"lat": "46.951159", "lon": "4.305234"}, "id": "stop_area:G71:SA:gen12986"}, {"comment": "", "name": "CIMETIERE", "coord": {"lat": "46.948338", "lon": "4.305925"}, "id": "stop_area:CAN:SA:CIMETI"}, {"comment": "", "name": "SOUS PREFECTURE", "coord": {"lat": "46.950727", "lon": "4.303042"}, "id": "stop_area:CAN:SA:SOUPRE"}, {"comment": "", "name": "CHAMP DES MARS", "coord": {"lat": "46.949969", "lon": "4.298967"}, "id": "stop_area:CAN:SA:CHAMAR"}, {"comment": "", "name": "HAUTS QUARTIERS", "coord": {"lat": "46.94716", "lon": "4.301125"}, "id": "stop_area:CAN:SA:HAUQUA"}, {"comment": "", "name": "CHARLES DE GAULLE", "coord": {"lat": "46.952668", "lon": "4.296378"}, "id": "stop_area:CAN:SA:CHAGAU"}, {"comment": "", "name": "Gare", "coord": {"lat": "46.954847", "lon": "4.293315"}, "id": "stop_area:NAV:SA:24"}, {"comment": "", "name": "HOPITAL SITE PARPAS", "coord": {"lat": "46.951819", "lon": "4.291806"}, "id": "stop_area:CAN:SA:HOPPAR"}, {"comment": "", "name": "ZONE DE BELLEVUE", "coord": {"lat": "46.969716", "lon": "4.273881"}, "id": "stop_area:CAN:SA:ZONBEL"}, {"comment": "", "name": "Les Moreaux", "coord": {"lat": "46.967497", "lon": "4.274579"}, "id": "stop_area:G71:SA:gen10148"}, {"comment": "", "name": "ESAT", "coord": {"lat": "46.947202", "lon": "4.280167"}, "id": "stop_area:CAN:SA:ESAT"}, {"comment": "", "name": "CFA BATIMENT", "coord": {"lat": "46.948615", "lon": "4.28278"}, "id": "stop_area:CAN:SA:CFA"}, {"comment": "", "name": "COLLEGE DE LA CHATAIGNERAIE", "coord": {"lat": "46.945453", "lon": "4.285406"}, "id": "stop_area:CAN:SA:COLCHA"}, {"comment": "", "name": "SAINT EXUPERY", "coord": {"lat": "46.950817", "lon": "4.290134"}, "id": "stop_area:CAN:SA:STEXUP"}, {"comment": "", "name": "LES MARBRES", "coord": {"lat": "0.0", "lon": "0.0"}, "id": "stop_area:CAN:SA:MARBRE"}, {"comment": "", "name": "LES TUILERIES", "coord": {"lat": "46.966127", "lon": "4.315712"}, "id": "stop_area:CAN:SA:TUILER"}, {"comment": "", "name": "SAINT PIERRE", "coord": {"lat": "46.963728", "lon": "4.31939"}, "id": "stop_area:CAN:SA:STPIER"}, {"comment": "", "name": "Le Tribunal", "coord": {"lat": "47.023295", "lon": "4.839287"}, "id": "stop_area:CBE:SA:gen00129"}, {"comment": "", "name": "Fbg Madeleine", "coord": {"lat": "0.0", "lon": "0.0"}, "id": "stop_area:CBE:SA:gen00189"}, {"comment": "", "name": "Parc de la Bouzaise", "coord": {"lat": "47.026427", "lon": "4.828594"}, "id": "stop_area:CBE:SA:gen00133"}, {"comment": "", "name": "Rue du Clair Matin", "coord": {"lat": "47.02813", "lon": "4.830825"}, "id": "stop_area:CBE:SA:gen00134"}, {"comment": "", "name": "Rue du Reon", "coord": {"lat": "47.029431", "lon": "4.843013"}, "id": "stop_area:CBE:SA:gen00135"}, {"comment": "", "name": "Rue de Chorey", "coord": {"lat": "47.031179", "lon": "4.845207"}, "id": "stop_area:CBE:SA:gen00136"}, {"comment": "", "name": "Rte de Challanges", "coord": {"lat": "47.017518", "lon": "4.854181"}, "id": "stop_area:CBE:SA:gen00192"}, {"comment": "", "name": "L Intermarche", "coord": {"lat": "47.019855", "lon": "4.857251"}, "id": "stop_area:CBE:SA:gen00191"}, {"comment": "", "name": "INFOP", "coord": {"lat": "47.024789", "lon": "4.86685"}, "id": "stop_area:CBE:SA:gen00190"}, {"comment": "", "name": "Les Chilenes", "coord": {"lat": "47.038746", "lon": "4.834394"}, "id": "stop_area:CBE:SA:gen00113"}, {"comment": "", "name": "Rue du Clos du Roy", "coord": {"lat": "47.038199", "lon": "4.838241"}, "id": "stop_area:CBE:SA:gen00195"}, {"comment": "", "name": "Les Dominicaines", "coord": {"lat": "47.031896", "lon": "4.842657"}, "id": "stop_area:CBE:SA:gen00137"}, {"comment": "", "name": "Rte de Dijon", "coord": {"lat": "47.034443", "lon": "4.844759"}, "id": "stop_area:CBE:SA:gen00073"}, {"comment": "", "name": "Le Chateau", "coord": {"lat": "47.02473", "lon": "4.883732"}, "id": "stop_area:CBE:SA:gen00611"}, {"comment": "", "name": "La Mairie", "coord": {"lat": "47.029967", "lon": "4.889025"}, "id": "stop_area:CBE:SA:gen00609"}, {"comment": "", "name": "Pl. de L Europe", "coord": {"lat": "47.008312", "lon": "4.796765"}, "id": "stop_area:CBE:SA:gen00486"}, {"comment": "", "name": "11 novembre", "coord": {"lat": "46.981857", "lon": "4.767969"}, "id": "stop_area:CBE:SA:gen00424"}, {"comment": "", "name": "Croix de Citeaux", "coord": {"lat": "46.976892", "lon": "4.774662"}, "id": "stop_area:CBE:SA:gen00425"}, {"comment": "", "name": "L Hopital", "coord": {"lat": "46.973855", "lon": "4.782654"}, "id": "stop_area:CBE:SA:gen00426"}, {"comment": "", "name": "Lotissement", "coord": {"lat": "46.970851", "lon": "4.789033"}, "id": "stop_area:CBE:SA:gen00423"}, {"comment": "", "name": "Monthelie", "coord": {"lat": "46.989789", "lon": "4.772822"}, "id": "stop_area:CBE:SA:gen00452"}, {"comment": "", "name": "L Eglise", "coord": {"lat": "46.986243", "lon": "4.746141"}, "id": "stop_area:CBE:SA:gen00039"}, {"comment": "", "name": "Auxey", "coord": {"lat": "46.98756", "lon": "4.738742"}, "id": "stop_area:CBE:SA:gen00042"}, {"comment": "", "name": "Romain", "coord": {"lat": "46.991901", "lon": "4.723133"}, "id": "stop_area:CBE:SA:gen00531"}, {"comment": "", "name": "Melin", "coord": {"lat": "46.982385", "lon": "4.712086"}, "id": "stop_area:CBE:SA:gen00041"}, {"comment": "", "name": "L Ecole", "coord": {"lat": "46.956254", "lon": "4.676338"}, "id": "stop_area:CBE:SA:gen00502"}, {"comment": "", "name": "Les Louchardes", "coord": {"lat": "46.943829", "lon": "4.650797"}, "id": "stop_area:CBE:SA:gen00503"}, {"comment": "", "name": "La Gare", "coord": {"lat": "46.949927", "lon": "4.638129"}, "id": "stop_area:CBE:SA:gen00470"}, {"comment": "", "name": "Pl. Hotel de Ville", "coord": {"lat": "46.951831", "lon": "4.629848"}, "id": "stop_area:CBE:SA:gen00469"}, {"comment": "", "name": "Nolay", "coord": {"lat": "46.95197", "lon": "4.634054"}, "id": "stop_area:SCF:SA:SAOCE87713602"}, {"comment": "", "name": "Volnay", "coord": {"lat": "46.999606", "lon": "4.785077"}, "id": "stop_area:CBE:SA:gen00632"}, {"comment": "", "name": "Pl. du Monument", "coord": {"lat": "46.946106", "lon": "4.754234"}, "id": "stop_area:CBE:SA:gen00494"}, {"comment": "", "name": "Bd Marechal Joffre", "coord": {"lat": "0.0", "lon": "0.0"}, "id": "stop_area:CBE:SA:gen00069"}, {"comment": "", "name": "La Place", "coord": {"lat": "46.937886", "lon": "4.732641"}, "id": "stop_area:CBE:SA:gen00220"}, {"comment": "", "name": "Le Pre Melin", "coord": {"lat": "46.925344", "lon": "4.736091"}, "id": "stop_area:CBE:SA:gen00221"}, {"comment": "", "name": "Le Casino", "coord": {"lat": "46.910228", "lon": "4.683565"}, "id": "stop_area:CBE:SA:gen00534"}, {"comment": "", "name": "gare de Santenay-les-Bains", "coord": {"lat": "46.910663", "lon": "4.701541"}, "id": "stop_area:SCF:SA:SAOCE87713594"}, {"comment": "", "name": "4e RI", "coord": {"lat": "47.803085", "lon": "3.559483"}, "id": "stop_area:CAX:SA:19"}, {"comment": "", "name": "Champleroy", "coord": {"lat": "47.80396", "lon": "3.562593"}, "id": "stop_area:CAX:SA:21"}, {"comment": "", "name": "Vaulabelle", "coord": {"lat": "47.792585", "lon": "3.574058"}, "id": "stop_area:CAX:SA:33"}, {"comment": "", "name": "Police", "coord": {"lat": "0.0", "lon": "0.0"}, "id": "stop_area:CAX:SA:35"}, {"comment": "", "name": "Paul Bert", "coord": {"lat": "47.79491", "lon": "3.578878"}, "id": "stop_area:CAX:SA:37"}, {"comment": "", "name": "Saint Amarin", "coord": {"lat": "47.797955", "lon": "3.579593"}, "id": "stop_area:CAX:SA:39"}, {"comment": "", "name": "Tournelle", "coord": {"lat": "47.79978", "lon": "3.581068"}, "id": "stop_area:CAX:SA:41"}, {"comment": "", "name": "Brazza", "coord": {"lat": "47.80101", "lon": "3.582278"}, "id": "stop_area:CAX:SA:79"}, {"comment": "", "name": "Gare SNCF", "coord": {"lat": "47.797895", "lon": "3.584558"}, "id": "stop_area:CAX:SA:43"}, {"comment": "", "name": "Alouette", "coord": {"lat": "47.79912", "lon": "3.589208"}, "id": "stop_area:CAX:SA:59"}, {"comment": "", "name": "Turgotine", "coord": {"lat": "47.80079", "lon": "3.589633"}, "id": "stop_area:CAX:SA:61"}, {"comment": "", "name": "Fontenottes", "coord": {"lat": "47.80178", "lon": "3.587388"}, "id": "stop_area:CAX:SA:63"}, {"comment": "", "name": "Les Mignottes", "coord": {"lat": "47.80224", "lon": "3.590318"}, "id": "stop_area:CAX:SA:452"}, {"comment": "", "name": "Colbert", "coord": {"lat": "47.797235", "lon": "3.588843"}, "id": "stop_area:CAX:SA:57"}, {"comment": "", "name": "Les Vauviers", "coord": {"lat": "47.795865", "lon": "3.590008"}, "id": "stop_area:CAX:SA:55"}, {"comment": "", "name": "Redditch", "coord": {"lat": "47.793385", "lon": "3.586728"}, "id": "stop_area:CAX:SA:45"}, {"comment": "", "name": "Les Plattes (R)", "coord": {"lat": "0.0", "lon": "0.0"}, "id": "stop_area:CAX:SP:1307392"}, {"comment": "", "name": "Dr Schweitzer", "coord": {"lat": "47.79243", "lon": "3.590793"}, "id": "stop_area:CAX:SA:47"}, {"comment": "", "name": "Les Hameaux du Coteau", "coord": {"lat": "47.794175", "lon": "3.596943"}, "id": "stop_area:CAX:SA:49"}, {"comment": "", "name": "Les Egriselles", "coord": {"lat": "47.79507", "lon": "3.594388"}, "id": "stop_area:CAX:SA:51"}, {"comment": "", "name": "Complexe Sportif", "coord": {"lat": "47.796265", "lon": "3.593678"}, "id": "stop_area:CAX:SA:53"}, {"comment": "", "name": "Les Plattes (A)", "coord": {"lat": "0.0", "lon": "0.0"}, "id": "stop_area:CAX:SP:1307391"}, {"comment": "", "name": "Perrigny Monument", "coord": {"lat": "47.818871", "lon": "3.538343"}, "id": "stop_area:CAX:SA:222"}, {"comment": "", "name": "Bourg", "coord": {"lat": "47.82085", "lon": "3.534564"}, "id": "stop_area:CAX:SA:513"}, {"comment": "", "name": "Coulemine", "coord": {"lat": "47.82183", "lon": "3.538399"}, "id": "stop_area:CAX:SA:226"}, {"comment": "", "name": "Br\u00e9andes", "coord": {"lat": "47.827685", "lon": "3.544354"}, "id": "stop_area:CAX:SA:228"}, {"comment": "", "name": "Vendanges", "coord": {"lat": "47.82557", "lon": "3.544249"}, "id": "stop_area:CAX:SA:231"}, {"comment": "", "name": "Les Chesnez Place (A)", "coord": {"lat": "0.0", "lon": "0.0"}, "id": "stop_area:CAX:SP:1315230"}, {"comment": "", "name": "S\u00e9curit\u00e9 Sociale", "coord": {"lat": "47.8079", "lon": "3.564488"}, "id": "stop_area:CAX:SA:384"}, {"comment": "", "name": "H.P.Y.", "coord": {"lat": "0.0", "lon": "0.0"}, "id": "stop_area:CAX:SA:186"}, {"comment": "", "name": "Office de Tourisme", "coord": {"lat": "47.797645", "lon": "3.574531"}, "id": "stop_area:CAX:SA:2410855"}, {"comment": "", "name": "Place Saint-Nicolas", "coord": {"lat": "47.800128", "lon": "3.574405"}, "id": "stop_area:CAX:SA:2410856"}, {"comment": "", "name": "La Chainette", "coord": {"lat": "47.801418", "lon": "3.571861"}, "id": "stop_area:CAX:SA:2410857"}, {"comment": "", "name": "CC les Clairions", "coord": {"lat": "47.814485", "lon": "3.571608"}, "id": "stop_area:CAX:SA:176"}, {"comment": "", "name": "Fourneaux", "coord": {"lat": "47.81336", "lon": "3.571348"}, "id": "stop_area:CAX:SA:178"}, {"comment": "", "name": "Eiffel", "coord": {"lat": "47.8118", "lon": "3.571813"}, "id": "stop_area:CAX:SA:180"}, {"comment": "", "name": "Jean Monnet", "coord": {"lat": "47.813815", "lon": "3.564203"}, "id": "stop_area:CAX:SA:104"}, {"comment": "", "name": "Marne", "coord": {"lat": "47.811945", "lon": "3.561163"}, "id": "stop_area:CAX:SA:106"}, {"comment": "", "name": "Verdun", "coord": {"lat": "47.808015", "lon": "3.558083"}, "id": "stop_area:CAX:SA:108"}, {"comment": "", "name": "Saint Sim\u00e9on Midi", "coord": {"lat": "47.80536", "lon": "3.555583"}, "id": "stop_area:CAX:SA:110"}, {"comment": "", "name": "Le Phare", "coord": {"lat": "47.797245", "lon": "3.551763"}, "id": "stop_area:CAX:SA:113"}, {"comment": "", "name": "Fragonard", "coord": {"lat": "47.798855", "lon": "3.549098"}, "id": "stop_area:CAX:SA:115"}, {"comment": "", "name": "Ingres", "coord": {"lat": "47.79743", "lon": "3.547213"}, "id": "stop_area:CAX:SA:117"}, {"comment": "", "name": "Lafayette", "coord": {"lat": "47.79643", "lon": "3.547773"}, "id": "stop_area:CAX:SA:119"}, {"comment": "", "name": "Fourier", "coord": {"lat": "47.794825", "lon": "3.551443"}, "id": "stop_area:CAX:SA:121"}, {"comment": "", "name": "Pasteur", "coord": {"lat": "47.794605", "lon": "3.555238"}, "id": "stop_area:CAX:SA:123"}, {"comment": "", "name": "Hatin", "coord": {"lat": "47.79716", "lon": "3.557463"}, "id": "stop_area:CAX:SA:125"}, {"comment": "", "name": "CES Denfert Rochereau", "coord": {"lat": "47.796795", "lon": "3.560568"}, "id": "stop_area:CAX:SA:469"}, {"comment": "", "name": "Foch", "coord": {"lat": "47.795855", "lon": "3.563333"}, "id": "stop_area:CAX:SA:129"}, {"comment": "", "name": "Achille Ribain", "coord": {"lat": "47.79289", "lon": "3.581878"}, "id": "stop_area:CAX:SA:134"}, {"comment": "", "name": "APRR", "coord": {"lat": "47.003748", "lon": "4.858672"}, "id": "stop_area:CBE:SA:gen00076"}, {"comment": "", "name": "La Cerisiere", "coord": {"lat": "47.007051", "lon": "4.855132"}, "id": "stop_area:CBE:SA:gen00077"}, {"comment": "", "name": "Philippe le Bon", "coord": {"lat": "47.007315", "lon": "4.848019"}, "id": "stop_area:CBE:SA:gen00078"}, {"comment": "", "name": "Le Palais des Congre", "coord": {"lat": "47.012414", "lon": "4.843361"}, "id": "stop_area:CBE:SA:gen00079"}, {"comment": "", "name": "Rue Marie Noel", "coord": {"lat": "47.014635", "lon": "4.83682"}, "id": "stop_area:CBE:SA:gen00080"}, {"comment": "", "name": "Rue Gaston Roupnel 2", "coord": {"lat": "47.015098", "lon": "4.833728"}, "id": "stop_area:CBE:SA:gen00082"}, {"comment": "", "name": "Rue Gaston Roupnel 1", "coord": {"lat": "47.017711", "lon": "4.833416"}, "id": "stop_area:CBE:SA:gen00081"}, {"comment": "", "name": "Les Chazeaux", "coord": {"lat": "47.016014", "lon": "4.83108"}, "id": "stop_area:CBE:SA:gen00083"}, {"comment": "", "name": "Rue du 2eme Cuirassi", "coord": {"lat": "47.013182", "lon": "4.827376"}, "id": "stop_area:CBE:SA:gen00084"}, {"comment": "", "name": "Ch. des Rates 2", "coord": {"lat": "47.013914", "lon": "4.822628"}, "id": "stop_area:CBE:SA:gen00085"}, {"comment": "", "name": "Ch. des Rates 1", "coord": {"lat": "47.016277", "lon": "4.824413"}, "id": "stop_area:CBE:SA:gen00086"}, {"comment": "", "name": "Les Levees", "coord": {"lat": "47.018388", "lon": "4.827348"}, "id": "stop_area:CBE:SA:gen00087"}, {"comment": "", "name": "Les Prevolles", "coord": {"lat": "47.02192", "lon": "4.830306"}, "id": "stop_area:CBE:SA:gen00088"}, {"comment": "", "name": "La Bretonniere", "coord": {"lat": "47.021889", "lon": "4.833682"}, "id": "stop_area:CBE:SA:gen00054"}, {"comment": "", "name": "Bd Georges Clemencea", "coord": {"lat": "47.022471", "lon": "4.83332"}, "id": "stop_area:CBE:SA:gen00057"}, {"comment": "", "name": "Beaune Clemenceau", "coord": {"lat": "47.024338", "lon": "4.832677"}, "id": "stop_area:G21:SA:gen03719"}, {"comment": "", "name": "Pl. Petasse", "coord": {"lat": "47.023542", "lon": "4.831645"}, "id": "stop_area:CBE:SA:gen00089"}, {"comment": "", "name": "Square des lions", "coord": {"lat": "47.025606", "lon": "4.835507"}, "id": "stop_area:CBE:SA:gen00099"}, {"comment": "", "name": "Beaune Buttes", "coord": {"lat": "47.02779", "lon": "4.838106"}, "id": "stop_area:G21:SA:gen03718"}, {"comment": "", "name": "Michel Bon", "coord": {"lat": "47.028917", "lon": "4.835186"}, "id": "stop_area:CBE:SA:gen00093"}, {"comment": "", "name": "L Hopital", "coord": {"lat": "47.03192", "lon": "4.834386"}, "id": "stop_area:CBE:SA:gen00095"}, {"comment": "", "name": "L aigue", "coord": {"lat": "47.030082", "lon": "4.833322"}, "id": "stop_area:CBE:SA:gen00094"}, {"comment": "", "name": "Le Cimetiere", "coord": {"lat": "47.033536", "lon": "4.835764"}, "id": "stop_area:CBE:SA:gen00138"}, {"comment": "", "name": "Rue des Roles", "coord": {"lat": "47.029191", "lon": "4.837196"}, "id": "stop_area:CBE:SA:gen00197"}, {"comment": "", "name": "Le Monument aux Mort", "coord": {"lat": "47.027899", "lon": "4.836889"}, "id": "stop_area:CBE:SA:gen00098"}, {"comment": "", "name": "Rue du Fd St Nicolas", "coord": {"lat": "47.029186", "lon": "4.840292"}, "id": "stop_area:CBE:SA:gen00139"}, {"comment": "", "name": "Pl. des Halles", "coord": {"lat": "47.022891", "lon": "4.836337"}, "id": "stop_area:CBE:SA:gen00131"}, {"comment": "", "name": "Le lycee Viticole", "coord": {"lat": "47.024351", "lon": "4.828893"}, "id": "stop_area:CBE:SA:gen00132"}, {"comment": "", "name": "Pl. Carnot", "coord": {"lat": "47.02223", "lon": "4.838277"}, "id": "stop_area:CBE:SA:gen00130"}, {"comment": "", "name": "La Securite Sociale", "coord": {"lat": "47.020815", "lon": "4.82473"}, "id": "stop_area:CBE:SA:gen00090"}, {"comment": "", "name": "Square Bouley", "coord": {"lat": "47.021978", "lon": "4.841652"}, "id": "stop_area:CBE:SA:gen00091"}, {"comment": "", "name": "Beaune Jules Ferry", "coord": {"lat": "47.024075", "lon": "4.844393"}, "id": "stop_area:G21:SA:gen01654"}, {"comment": "", "name": "Gare", "coord": {"lat": "47.022968", "lon": "4.848447"}, "id": "stop_area:SCF:SA:SAOCE87713545"}, {"comment": "", "name": "Rue Celer", "coord": {"lat": "47.021088", "lon": "4.846073"}, "id": "stop_area:CBE:SA:gen00116"}, {"comment": "", "name": "Rue de Citeaux 2", "coord": {"lat": "47.022873", "lon": "4.851053"}, "id": "stop_area:CBE:SA:gen00124"}, {"comment": "", "name": "Jardin Anglais", "coord": {"lat": "47.025688", "lon": "4.842846"}, "id": "stop_area:CBE:SA:gen00092"}, {"comment": "", "name": "Pl. Madeleine", "coord": {"lat": "47.021084", "lon": "4.842965"}, "id": "stop_area:CBE:SA:gen00108"}, {"comment": "", "name": "Silo", "coord": {"lat": "47.019797", "lon": "4.84466"}, "id": "stop_area:G21:SA:gen06843"}, {"comment": "", "name": "La Chartreuse", "coord": {"lat": "47.019792", "lon": "4.846075"}, "id": "stop_area:CBE:SA:gen00107"}, {"comment": "", "name": "Rue du Lieutenant Du", "coord": {"lat": "47.01737", "lon": "4.845156"}, "id": "stop_area:CBE:SA:gen00168"}, {"comment": "", "name": "Le Funerarium", "coord": {"lat": "47.03556", "lon": "4.837954"}, "id": "stop_area:CBE:SA:gen00096"}, {"comment": "", "name": "La Gendarmerie", "coord": {"lat": "47.037582", "lon": "4.837661"}, "id": "stop_area:CBE:SA:gen00097"}, {"comment": "", "name": "Le College Monge", "coord": {"lat": "47.040375", "lon": "4.837801"}, "id": "stop_area:CBE:SA:gen00058"}, {"comment": "", "name": "Beaune Zone Savigny", "coord": {"lat": "47.041378", "lon": "4.842183"}, "id": "stop_area:G21:SA:gen06806"}, {"comment": "", "name": "TPC", "coord": {"lat": "47.040129", "lon": "4.840244"}, "id": "stop_area:CBE:SA:gen00112"}, {"comment": "", "name": "Les Maladieres", "coord": {"lat": "47.040805", "lon": "4.846129"}, "id": "stop_area:CBE:SA:gen00127"}, {"comment": "", "name": "Le Bataillon de la G", "coord": {"lat": "47.041341", "lon": "4.842208"}, "id": "stop_area:CBE:SA:gen00128"}, {"comment": "", "name": "Rue de Flun", "coord": {"lat": "47.007561", "lon": "4.86844"}, "id": "stop_area:CBE:SA:gen00100"}, {"comment": "", "name": "Rue des Maranches", "coord": {"lat": "47.011234", "lon": "4.871873"}, "id": "stop_area:CBE:SA:gen00101"}, {"comment": "", "name": "Les Tulipiers", "coord": {"lat": "47.01382", "lon": "4.874115"}, "id": "stop_area:CBE:SA:gen00160"}, {"comment": "", "name": "Les Silos", "coord": {"lat": "47.018519", "lon": "4.863052"}, "id": "stop_area:CBE:SA:gen00103"}, {"comment": "", "name": "Av. Lac 1", "coord": {"lat": "47.018469", "lon": "4.854998"}, "id": "stop_area:CBE:SA:gen00104"}, {"comment": "", "name": "Av. Lac 2", "coord": {"lat": "47.014996", "lon": "4.851152"}, "id": "stop_area:CBE:SA:gen00105"}, {"comment": "", "name": "Ecole des Echaliers", "coord": {"lat": "47.016462", "lon": "4.848148"}, "id": "stop_area:CBE:SA:gen00162"}, {"comment": "", "name": "Le Camping", "coord": {"lat": "47.032702", "lon": "4.838976"}, "id": "stop_area:CBE:SA:gen00109"}, {"comment": "", "name": "Rte de Savigny 1", "coord": {"lat": "47.032584", "lon": "4.841021"}, "id": "stop_area:CBE:SA:gen00110"}, {"comment": "", "name": "Rte de Savigny 2", "coord": {"lat": "47.035604", "lon": "4.84084"}, "id": "stop_area:CBE:SA:gen00111"}, {"comment": "", "name": "Les Chilenes", "coord": {"lat": "47.038781", "lon": "4.834401"}, "id": "stop_area:CBE:SA:gen00161"}, {"comment": "", "name": "Le Forum des Sports", "coord": {"lat": "47.041723", "lon": "4.83516"}, "id": "stop_area:CBE:SA:gen00114"}, {"comment": "", "name": "Rue Jean Mermoz", "coord": {"lat": "47.040769", "lon": "4.832308"}, "id": "stop_area:CBE:SA:gen00115"}, {"comment": "", "name": "La gentilhommi\u00e8re", "coord": {"lat": "47.041627", "lon": "4.870318"}, "id": "stop_area:CBE:SA:gen00117"}, {"comment": "", "name": "L Ecole", "coord": {"lat": "47.037751", "lon": "4.870565"}, "id": "stop_area:CBE:SA:gen00118"}, {"comment": "", "name": "Le Brully 2", "coord": {"lat": "47.036373", "lon": "4.867225"}, "id": "stop_area:CBE:SA:gen00119"}, {"comment": "", "name": "Les Creptilles", "coord": {"lat": "47.03156", "lon": "4.860782"}, "id": "stop_area:CBE:SA:gen00120"}, {"comment": "", "name": "Le Camp Americain", "coord": {"lat": "47.02935", "lon": "4.861253"}, "id": "stop_area:CBE:SA:gen00121"}, {"comment": "", "name": "Les Barbizottes", "coord": {"lat": "47.027348", "lon": "4.859215"}, "id": "stop_area:CBE:SA:gen00174"}, {"comment": "", "name": "Les Citeaux 1", "coord": {"lat": "47.026816", "lon": "4.854527"}, "id": "stop_area:CBE:SA:gen00123"}, {"comment": "", "name": "Colbert", "coord": {"lat": "47.026713", "lon": "4.847734"}, "id": "stop_area:CBE:SA:gen00064"}, {"comment": "", "name": "Le Lycee Marey", "coord": {"lat": "47.029577", "lon": "4.851896"}, "id": "stop_area:CBE:SA:gen00059"}, {"comment": "", "name": "Les Capucines", "coord": {"lat": "47.032393", "lon": "4.852084"}, "id": "stop_area:CBE:SA:gen00188"}, {"comment": "", "name": "Les Primeveres", "coord": {"lat": "47.032184", "lon": "4.848548"}, "id": "stop_area:CBE:SA:gen00065"}, {"comment": "", "name": "Rue des Acacias 1", "coord": {"lat": "47.033477", "lon": "4.851081"}, "id": "stop_area:CBE:SA:gen00172"}, {"comment": "", "name": "Rue des Acacias 2", "coord": {"lat": "47.034491", "lon": "4.848745"}, "id": "stop_area:CBE:SA:gen00067"}, {"comment": "", "name": "La Sabliere 1", "coord": {"lat": "47.035094", "lon": "4.844261"}, "id": "stop_area:CBE:SA:gen00125"}, {"comment": "", "name": "La Sabliere 2", "coord": {"lat": "47.038133", "lon": "4.844055"}, "id": "stop_area:CBE:SA:gen00126"}, {"comment": "", "name": "Fleurey Reine Dijon", "coord": {"lat": "0.0", "lon": "0.0"}, "id": "stop_area:G21:SA:gen05526"}, {"comment": "", "name": "Ste Marie Noyer Vign", "coord": {"lat": "0.0", "lon": "0.0"}, "id": "stop_area:G21:SA:gen04300"}, {"comment": "", "name": "Arret TRANSCO", "coord": {"lat": "0.0", "lon": "0.0"}, "id": "stop_area:G21:SA:gen03621"}, {"comment": "", "name": "Remilly en Montagne", "coord": {"lat": "0.0", "lon": "0.0"}, "id": "stop_area:G21:SA:gen04448"}, {"comment": "", "name": "Le Trembloy", "coord": {"lat": "0.0", "lon": "0.0"}, "id": "stop_area:G21:SA:gen03597"}, {"comment": "", "name": "Echannay Transco", "coord": {"lat": "0.0", "lon": "0.0"}, "id": "stop_area:G21:SA:gen03953"}, {"comment": "", "name": "Montoillot Transco", "coord": {"lat": "0.0", "lon": "0.0"}, "id": "stop_area:G21:SA:gen04099"}, {"comment": "", "name": "Commarin Centre", "coord": {"lat": "0.0", "lon": "0.0"}, "id": "stop_area:G21:SA:gen04792"}, {"comment": "", "name": "Creancey Transco", "coord": {"lat": "0.0", "lon": "0.0"}, "id": "stop_area:G21:SA:gen03937"}, {"comment": "", "name": "Pouilly Centre", "coord": {"lat": "47.262401", "lon": "4.555969"}, "id": "stop_area:G21:SA:gen04162"}, {"comment": "", "name": "Pouilly HLM", "coord": {"lat": "47.268321", "lon": "4.547559"}, "id": "stop_area:G21:SA:gen03814"}, {"comment": "", "name": "Pouilly Bas", "coord": {"lat": "0.0", "lon": "0.0"}, "id": "stop_area:G21:SA:gen04160"}, {"comment": "", "name": "Cercey", "coord": {"lat": "0.0", "lon": "0.0"}, "id": "stop_area:G21:SA:gen05525"}, {"comment": "", "name": "Chailly Centre", "coord": {"lat": "0.0", "lon": "0.0"}, "id": "stop_area:G21:SA:gen03765"}, {"comment": "", "name": "Sausseau", "coord": {"lat": "0.0", "lon": "0.0"}, "id": "stop_area:G21:SA:gen03766"}, {"comment": "", "name": "Mont St Jean Melin", "coord": {"lat": "0.0", "lon": "0.0"}, "id": "stop_area:G21:SA:gen04089"}, {"comment": "", "name": "Mont St Jean Moulin", "coord": {"lat": "0.0", "lon": "0.0"}, "id": "stop_area:G21:SA:gen04090"}, {"comment": "", "name": "Thoisy ecole", "coord": {"lat": "0.0", "lon": "0.0"}, "id": "stop_area:G21:SA:gen04350"}, {"comment": "", "name": "Goix", "coord": {"lat": "0.0", "lon": "0.0"}, "id": "stop_area:G21:SA:gen03172"}, {"comment": "", "name": "Vandenesse Bordes", "coord": {"lat": "0.0", "lon": "0.0"}, "id": "stop_area:G21:SA:gen04364"}, {"comment": "", "name": "Vandenesse Centre", "coord": {"lat": "0.0", "lon": "0.0"}, "id": "stop_area:G21:SA:gen04363"}, {"comment": "", "name": "Maconge Place", "coord": {"lat": "0.0", "lon": "0.0"}, "id": "stop_area:G21:SA:gen02650"}, {"comment": "", "name": "Rouvres Sous Meilly", "coord": {"lat": "0.0", "lon": "0.0"}, "id": "stop_area:G21:SA:gen03840"}, {"comment": "", "name": "Chazilly Transco", "coord": {"lat": "0.0", "lon": "0.0"}, "id": "stop_area:G21:SA:gen03914"}, {"comment": "", "name": "Cussy le Chatel", "coord": {"lat": "0.0", "lon": "0.0"}, "id": "stop_area:G21:SA:gen03945"}, {"comment": "", "name": "Longecourt Bas", "coord": {"lat": "0.0", "lon": "0.0"}, "id": "stop_area:G21:SA:gen04039"}, {"comment": "", "name": "Maligny Transco", "coord": {"lat": "0.0", "lon": "0.0"}, "id": "stop_area:G21:SA:gen04052"}, {"comment": "", "name": "Lacanche Transco", "coord": {"lat": "0.0", "lon": "0.0"}, "id": "stop_area:G21:SA:gen04017"}, {"comment": "", "name": "Maconge Place calvai", "coord": {"lat": "0.0", "lon": "0.0"}, "id": "stop_area:G21:SA:gen04045"}, {"comment": "", "name": "Thoisy Centre", "coord": {"lat": "0.0", "lon": "0.0"}, "id": "stop_area:G21:SA:gen03370"}, {"comment": "", "name": "Sombernon Abreuvoir", "coord": {"lat": "0.0", "lon": "0.0"}, "id": "stop_area:G21:SA:gen04329"}, {"comment": "", "name": "Sombernon Pave", "coord": {"lat": "0.0", "lon": "0.0"}, "id": "stop_area:G21:SA:gen04330"}, {"comment": "", "name": "Pralon Croisement", "coord": {"lat": "0.0", "lon": "0.0"}, "id": "stop_area:G21:SA:gen03819"}, {"comment": "", "name": "Mesmont Belle Idee", "coord": {"lat": "0.0", "lon": "0.0"}, "id": "stop_area:G21:SA:gen04071"}, {"comment": "", "name": "Geligny", "coord": {"lat": "0.0", "lon": "0.0"}, "id": "stop_area:G21:SA:gen03982"}, {"comment": "", "name": "Aubigny Sombernon", "coord": {"lat": "0.0", "lon": "0.0"}, "id": "stop_area:G21:SA:gen03638"}, {"comment": "", "name": "Grosbois Aire de loi", "coord": {"lat": "0.0", "lon": "0.0"}, "id": "stop_area:G21:SA:gen03547"}, {"comment": "", "name": "Grosbois Centre", "coord": {"lat": "0.0", "lon": "0.0"}, "id": "stop_area:G21:SA:gen03546"}, {"comment": "", "name": "Uncey le Franc", "coord": {"lat": "0.0", "lon": "0.0"}, "id": "stop_area:G21:SA:gen04361"}, {"comment": "", "name": "Boussey Et Saffres", "coord": {"lat": "0.0", "lon": "0.0"}, "id": "stop_area:G21:SA:gen03878"}, {"comment": "", "name": "Vitteaux Centre", "coord": {"lat": "0.0", "lon": "0.0"}, "id": "stop_area:G21:SA:gen04405"}, {"comment": "", "name": "Vitteaux Monument", "coord": {"lat": "47.398462", "lon": "4.536407"}, "id": "stop_area:G21:SA:gen04406"}, {"comment": "", "name": "Marcilly et Dracy", "coord": {"lat": "0.0", "lon": "0.0"}, "id": "stop_area:G21:SA:gen04056"}, {"comment": "", "name": "Maison Moine", "coord": {"lat": "0.0", "lon": "0.0"}, "id": "stop_area:G21:SA:gen04906"}, {"comment": "", "name": "Pont Royal", "coord": {"lat": "0.0", "lon": "0.0"}, "id": "stop_area:G21:SA:gen03920"}, {"comment": "", "name": "Maison de Paille", "coord": {"lat": "0.0", "lon": "0.0"}, "id": "stop_area:G21:SA:gen03919"}, {"comment": "", "name": "Marcigny sous Thil", "coord": {"lat": "0.0", "lon": "0.0"}, "id": "stop_area:G21:SA:gen04055"}, {"comment": "", "name": "Precy Centre", "coord": {"lat": "0.0", "lon": "0.0"}, "id": "stop_area:G21:SA:gen03820"}, {"comment": "", "name": "Precy Gendarmerie", "coord": {"lat": "47.390985", "lon": "4.307572"}, "id": "stop_area:G21:SA:gen03822"}, {"comment": "", "name": "Semur  Impro", "coord": {"lat": "47.487964", "lon": "4.355466"}, "id": "stop_area:G21:SA:gen05446"}, {"comment": "", "name": "Semur Croisettes", "coord": {"lat": "47.492346", "lon": "4.344403"}, "id": "stop_area:G21:SA:gen04321"}, {"comment": "", "name": "8 Mai", "coord": {"lat": "47.493608", "lon": "4.343968"}, "id": "stop_area:G21:SA:gen06861"}, {"comment": "", "name": "Semur Liberte", "coord": {"lat": "47.491686", "lon": "4.335745"}, "id": "stop_area:G21:SA:gen04322"}, {"comment": "", "name": "Semur Quinconces", "coord": {"lat": "47.494079", "lon": "4.325196"}, "id": "stop_area:G21:SA:gen04323"}, {"comment": "", "name": "Millery Collonge", "coord": {"lat": "0.0", "lon": "0.0"}, "id": "stop_area:G21:SA:gen04082"}, {"comment": "", "name": "Torcy Pouligny", "coord": {"lat": "0.0", "lon": "0.0"}, "id": "stop_area:G21:SA:gen04357"}, {"comment": "", "name": "Chateau", "coord": {"lat": "0.0", "lon": "0.0"}, "id": "stop_area:G21:SA:gen03812"}, {"comment": "", "name": "Centre", "coord": {"lat": "0.0", "lon": "0.0"}, "id": "stop_area:G21:SA:gen04638"}, {"comment": "", "name": "Toutry", "coord": {"lat": "47.49944", "lon": "4.121662"}, "id": "stop_area:G21:SA:gen04358"}, {"comment": "", "name": "Guillon", "coord": {"lat": "0.0", "lon": "0.0"}, "id": "stop_area:G21:SA:gen05037"}, {"comment": "", "name": "Savigny TerrePlaine", "coord": {"lat": "0.0", "lon": "0.0"}, "id": "stop_area:G21:SA:gen05039"}, {"comment": "", "name": "St Andre TerrePlaine", "coord": {"lat": "0.0", "lon": "0.0"}, "id": "stop_area:G21:SA:gen05038"}, {"comment": "", "name": "Cussy les Forges", "coord": {"lat": "47.471104", "lon": "4.025826"}, "id": "stop_area:G21:SA:gen05040"}, {"comment": "", "name": "Etree", "coord": {"lat": "0.0", "lon": "0.0"}, "id": "stop_area:G21:SA:gen05041"}, {"comment": "", "name": "Capucins", "coord": {"lat": "0.0", "lon": "0.0"}, "id": "stop_area:G21:SA:gen05393"}, {"comment": "", "name": "Gare", "coord": {"lat": "47.495589", "lon": "3.912204"}, "id": "stop_area:NAV:SA:12"}, {"comment": "", "name": "Braux Centre", "coord": {"lat": "0.0", "lon": "0.0"}, "id": "stop_area:G21:SA:gen05396"}, {"comment": "", "name": "Villeneuve s Charign", "coord": {"lat": "0.0", "lon": "0.0"}, "id": "stop_area:G21:SA:gen03616"}, {"comment": "", "name": "Pont MasseneD103 970", "coord": {"lat": "0.0", "lon": "0.0"}, "id": "stop_area:G21:SA:gen04157"}, {"comment": "", "name": "centre commercial", "coord": {"lat": "0.0", "lon": "0.0"}, "id": "stop_area:G21:SA:gen05395"}, {"comment": "", "name": "Talant College", "coord": {"lat": "47.339599", "lon": "4.998106"}, "id": "stop_area:G21:SA:gen04340"}, {"comment": "", "name": "Moulissards", "coord": {"lat": "47.342769", "lon": "4.999367"}, "id": "stop_area:CGD:SA:1049"}, {"comment": "", "name": "Canzio", "coord": {"lat": "47.342749", "lon": "5.000611"}, "id": "stop_area:CGD:SA:786"}, {"comment": "", "name": "Nachey", "coord": {"lat": "47.341173", "lon": "4.997143"}, "id": "stop_area:CGD:SA:1052"}, {"comment": "", "name": "Jouvet", "coord": {"lat": "47.338968", "lon": "4.996927"}, "id": "stop_area:CGD:SA:957"}, {"comment": "", "name": "Picasso", "coord": {"lat": "47.337831", "lon": "4.994911"}, "id": "stop_area:CGD:SA:1095"}, {"comment": "", "name": "Mail", "coord": {"lat": "47.337159", "lon": "4.993421"}, "id": "stop_area:CGD:SA:1015"}, {"comment": "", "name": "R\u00e9tisseys", "coord": {"lat": "47.338555", "lon": "4.991187"}, "id": "stop_area:CGD:SA:1158"}, {"comment": "", "name": "Logis de Bourgogne", "coord": {"lat": "47.338856", "lon": "4.998457"}, "id": "stop_area:CGD:SA:998"}, {"comment": "", "name": "Talant Arandes", "coord": {"lat": "47.34288", "lon": "5.000256"}, "id": "stop_area:G21:SA:gen04338"}, {"comment": "", "name": "Maladi\u00e8re", "coord": {"lat": "47.344589", "lon": "5.000816"}, "id": "stop_area:CGD:SA:1017"}, {"comment": "", "name": "Darois Mairie", "coord": {"lat": "47.38801", "lon": "4.939226"}, "id": "stop_area:G21:SA:gen03949"}, {"comment": "", "name": "Etaules Mairie", "coord": {"lat": "47.406836", "lon": "4.944519"}, "id": "stop_area:G21:SA:gen03514"}, {"comment": "", "name": "Val Suzon", "coord": {"lat": "47.407957", "lon": "4.894262"}, "id": "stop_area:G21:SA:gen04362"}, {"comment": "", "name": "Francheville Village", "coord": {"lat": "47.454712", "lon": "4.88114"}, "id": "stop_area:G21:SA:gen04551"}, {"comment": "", "name": "Francheville Prairay", "coord": {"lat": "47.445284", "lon": "4.834585"}, "id": "stop_area:G21:SA:gen03977"}, {"comment": "", "name": "Cestres", "coord": {"lat": "47.430872", "lon": "4.78979"}, "id": "stop_area:G21:SA:gen05414"}, {"comment": "", "name": "St Seine l Abbaye", "coord": {"lat": "47.438836", "lon": "4.787702"}, "id": "stop_area:G21:SA:gen04294"}, {"comment": "", "name": "Aviation", "coord": {"lat": "0.0", "lon": "0.0"}, "id": "stop_area:G21:SA:gen06912"}, {"comment": "", "name": "La Casquette", "coord": {"lat": "47.4336", "lon": "4.786334"}, "id": "stop_area:G21:SA:gen05415"}, {"comment": "", "name": "Champagny Transco", "coord": {"lat": "47.456225", "lon": "4.758912"}, "id": "stop_area:G21:SA:gen03905"}, {"comment": "", "name": "Poncey Croisement", "coord": {"lat": "47.486407", "lon": "4.742096"}, "id": "stop_area:G21:SA:gen03066"}, {"comment": "", "name": "Source Seine", "coord": {"lat": "47.488828", "lon": "4.740347"}, "id": "stop_area:G21:SA:gen06823"}, {"comment": "", "name": "Chanceaux Transco", "coord": {"lat": "47.520126", "lon": "4.71725"}, "id": "stop_area:G21:SA:gen03907"}, {"comment": "", "name": "Courceau", "coord": {"lat": "47.53165", "lon": "4.694911"}, "id": "stop_area:G21:SA:gen03933"}, {"comment": "", "name": "Billy croisemt", "coord": {"lat": "47.538077", "lon": "4.693617"}, "id": "stop_area:G21:SA:gen03740"}, {"comment": "", "name": "Baigneux Transco", "coord": {"lat": "47.599838", "lon": "4.648977"}, "id": "stop_area:G21:SA:gen03641"}, {"comment": "", "name": "Meursauge", "coord": {"lat": "47.648639", "lon": "4.629264"}, "id": "stop_area:G21:SA:gen04790"}, {"comment": "", "name": "St Marc sur Seine", "coord": {"lat": "47.699664", "lon": "4.605944"}, "id": "stop_area:G21:SA:gen04289"}, {"comment": "", "name": "Chenecieres", "coord": {"lat": "47.711246", "lon": "4.600307"}, "id": "stop_area:G21:SA:gen04290"}, {"comment": "", "name": "Vaurois", "coord": {"lat": "47.736946", "lon": "4.595069"}, "id": "stop_area:G21:SA:gen04371"}, {"comment": "", "name": "Aisey la Barque", "coord": {"lat": "47.745475", "lon": "4.586761"}, "id": "stop_area:G21:SA:gen03696"}, {"comment": "", "name": "Aisey Centre", "coord": {"lat": "47.750201", "lon": "4.581958"}, "id": "stop_area:G21:SA:gen03695"}, {"comment": "", "name": "Nod sur Seine", "coord": {"lat": "47.768055", "lon": "4.57057"}, "id": "stop_area:G21:SA:gen04108"}, {"comment": "", "name": "Chamesson", "coord": {"lat": "47.790235", "lon": "4.54447"}, "id": "stop_area:G21:SA:gen03902"}, {"comment": "", "name": "Crois", "coord": {"lat": "47.806926", "lon": "4.549172"}, "id": "stop_area:G21:SA:gen03626"}, {"comment": "", "name": "Buncey", "coord": {"lat": "47.823803", "lon": "4.56297"}, "id": "stop_area:G21:SA:gen03886"}, {"comment": "", "name": "La Cite", "coord": {"lat": "47.855848", "lon": "4.566857"}, "id": "stop_area:G21:SA:gen03771"}, {"comment": "", "name": "centre", "coord": {"lat": "47.860408", "lon": "4.573066"}, "id": "stop_area:G21:SA:gen03775"}, {"comment": "", "name": "Chatillon Lycee", "coord": {"lat": "47.864267", "lon": "4.575903"}, "id": "stop_area:G21:SA:gen03776"}, {"comment": "", "name": "Gare SNCF", "coord": {"lat": "47.870424", "lon": "4.571743"}, "id": "stop_area:SCF:SA:SAOCE87142554"}, {"comment": "", "name": "Chatillon Hopital", "coord": {"lat": "47.861501", "lon": "4.558205"}, "id": "stop_area:G21:SA:gen03774"}, {"comment": "", "name": "Quemignerot", "coord": {"lat": "47.65053", "lon": "4.660905"}, "id": "stop_area:G21:SA:gen03826"}, {"comment": "", "name": "Quemigny Monument", "coord": {"lat": "47.662316", "lon": "4.667748"}, "id": "stop_area:G21:SA:gen03827"}, {"comment": "", "name": "Cosne", "coord": {"lat": "47.674983", "lon": "4.66877"}, "id": "stop_area:G21:SA:gen03930"}, {"comment": "", "name": "Bellenod", "coord": {"lat": "47.697894", "lon": "4.645653"}, "id": "stop_area:G21:SA:gen03732"}, {"comment": "", "name": "De Gaulle", "coord": {"lat": "47.665451", "lon": "4.734888"}, "id": "stop_area:G21:SA:gen03623"}, {"comment": "", "name": "Beaunotte", "coord": {"lat": "47.67722", "lon": "4.70724"}, "id": "stop_area:G21:SA:gen03862"}, {"comment": "", "name": "Origny", "coord": {"lat": "47.701176", "lon": "4.638931"}, "id": "stop_area:G21:SA:gen04120"}, {"comment": "", "name": "Bellenod Vaux", "coord": {"lat": "47.696763", "lon": "4.63914"}, "id": "stop_area:G21:SA:gen03614"}, {"comment": "", "name": "Semond", "coord": {"lat": "47.71768", "lon": "4.590982"}, "id": "stop_area:G21:SA:gen04318"}, {"comment": "", "name": "Chamesson Mairie", "coord": {"lat": "47.790474", "lon": "4.540108"}, "id": "stop_area:G21:SA:gen05097"}, {"comment": "", "name": "Etormay Croist D114", "coord": {"lat": "47.59711", "lon": "4.575093"}, "id": "stop_area:G21:SA:gen02476"}, {"comment": "", "name": "Chaume eglise", "coord": {"lat": "47.627416", "lon": "4.582533"}, "id": "stop_area:G21:SA:gen04268"}, {"comment": "", "name": "Fontaine en Duesmois", "coord": {"lat": "47.648914", "lon": "4.544361"}, "id": "stop_area:G21:SA:gen03973"}, {"comment": "", "name": "Villaines Centre", "coord": {"lat": "47.681509", "lon": "4.526451"}, "id": "stop_area:G21:SA:gen04392"}, {"comment": "", "name": "Chalvosson", "coord": {"lat": "47.681509", "lon": "4.526451"}, "id": "stop_area:G21:SA:gen04511"}, {"comment": "", "name": "Magny rue basse", "coord": {"lat": "47.683014", "lon": "4.577371"}, "id": "stop_area:G21:SA:gen04047"}, {"comment": "", "name": "Chatillon Actipole", "coord": {"lat": "47.877339", "lon": "4.564943"}, "id": "stop_area:G21:SA:gen06797"}, {"comment": "", "name": "Laperriere Arret TRA", "coord": {"lat": "47.577611", "lon": "4.680244"}, "id": "stop_area:G21:SA:gen04454"}, {"comment": "", "name": "Le College Louise Mi", "coord": {"lat": "46.904529", "lon": "4.761756"}, "id": "stop_area:CBE:SA:gen00641"}, {"comment": "", "name": "L Ecole", "coord": {"lat": "46.907166", "lon": "4.755363"}, "id": "stop_area:CBE:SA:gen00645"}, {"comment": "", "name": "Le Groupe Scolaire S", "coord": {"lat": "46.912919", "lon": "4.753105"}, "id": "stop_area:CBE:SA:gen00640"}, {"comment": "", "name": "La Hameau de Buisson", "coord": {"lat": "47.077416", "lon": "4.885065"}, "id": "stop_area:CBE:SA:gen00557"}, {"comment": "", "name": "Le Monument aux Mort", "coord": {"lat": "47.073292", "lon": "4.878073"}, "id": "stop_area:CBE:SA:gen00553"}, {"comment": "", "name": "Rte Departementale", "coord": {"lat": "47.064675", "lon": "4.867737"}, "id": "stop_area:CBE:SA:gen00010"}, {"comment": "", "name": "Le Centre", "coord": {"lat": "46.930023", "lon": "4.752733"}, "id": "stop_area:CBE:SA:gen00286"}, {"comment": "", "name": "Les Meix", "coord": {"lat": "46.925296", "lon": "4.752679"}, "id": "stop_area:CBE:SA:gen00287"}, {"comment": "", "name": "Le Pont de Paris", "coord": {"lat": "46.918861", "lon": "4.752707"}, "id": "stop_area:CBE:SA:gen00288"}, {"comment": "", "name": "Rte d Autun", "coord": {"lat": "47.008083", "lon": "4.79706"}, "id": "stop_area:CBE:SA:gen00489"}, {"comment": "", "name": "Le Monument aux Mort", "coord": {"lat": "47.073183", "lon": "4.878148"}, "id": "stop_area:CBE:SA:gen00556"}, {"comment": "", "name": "Marne", "coord": {"lat": "47.330279", "lon": "5.048648"}, "id": "stop_area:CGD:SA:1027"}, {"comment": "", "name": "Auditorium", "coord": {"lat": "47.328641", "lon": "5.052331"}, "id": "stop_area:CGD:SA:721"}, {"comment": "", "name": "Reims", "coord": {"lat": "47.332904", "lon": "5.051595"}, "id": "stop_area:CGD:SA:1137"}, {"comment": "", "name": "Alsace", "coord": {"lat": "47.334673", "lon": "5.053571"}, "id": "stop_area:CGD:SA:711"}, {"comment": "", "name": "Giraud", "coord": {"lat": "47.336069", "lon": "5.051577"}, "id": "stop_area:CGD:SA:922"}, {"comment": "", "name": "Theuriet", "coord": {"lat": "47.338148", "lon": "5.050795"}, "id": "stop_area:CGD:SA:1206"}, {"comment": "", "name": "St-Exup\u00e9ry", "coord": {"lat": "47.336986", "lon": "5.056477"}, "id": "stop_area:CGD:SA:1184"}, {"comment": "", "name": "Vaillant", "coord": {"lat": "47.329871", "lon": "5.043921"}, "id": "stop_area:CGD:SA:1221"}, {"comment": "", "name": "Dijon Lycee De Gaull", "coord": {"lat": "47.350409", "lon": "5.040362"}, "id": "stop_area:G21:SA:gen03588"}, {"comment": "", "name": "Coteaux du Suzon", "coord": {"lat": "47.350488", "lon": "5.040218"}, "id": "stop_area:CGD:SA:849"}, {"comment": "", "name": "Dijon Coll. Malraux", "coord": {"lat": "47.351175", "lon": "5.036171"}, "id": "stop_area:G21:SA:gen03683"}, {"comment": "", "name": "Touzet Du Vigier", "coord": {"lat": "47.352687", "lon": "5.037806"}, "id": "stop_area:CGD:SA:1217"}, {"comment": "", "name": "Lyc\u00e9e De Gaulle", "coord": {"lat": "47.347175", "lon": "5.041414"}, "id": "stop_area:CGD:SA:1010"}, {"comment": "", "name": "Verniquet", "coord": {"lat": "47.346445", "lon": "5.042993"}, "id": "stop_area:CGD:SA:1228"}, {"comment": "", "name": "De Maupassant", "coord": {"lat": "47.344543", "lon": "5.041566"}, "id": "stop_area:CGD:SA:872"}, {"comment": "", "name": "Europe Transco  Av.", "coord": {"lat": "47.354506", "lon": "5.046134"}, "id": "stop_area:G21:SA:gen04810"}, {"comment": "", "name": "Giono", "coord": {"lat": "47.352204", "lon": "5.048629"}, "id": "stop_area:CGD:SA:921"}, {"comment": "", "name": "gare de Gemeaux", "coord": {"lat": "47.477803", "lon": "5.130078"}, "id": "stop_area:SCF:SA:SAOCE87713842"}, {"comment": "", "name": "Tilchatel RD974", "coord": {"lat": "47.515249", "lon": "5.177864"}, "id": "stop_area:G21:SA:gen04355"}, {"comment": "", "name": "Orville Transco", "coord": {"lat": "47.564824", "lon": "5.211496"}, "id": "stop_area:G21:SA:gen05385"}, {"comment": "", "name": "Selongey Gare", "coord": {"lat": "47.575468", "lon": "5.203294"}, "id": "stop_area:G21:SA:gen04435"}, {"comment": "", "name": "Selongey Chalet", "coord": {"lat": "47.588288", "lon": "5.183363"}, "id": "stop_area:G21:SA:gen03604"}, {"comment": "", "name": "Selongey Patenee", "coord": {"lat": "47.589431", "lon": "5.184489"}, "id": "stop_area:G21:SA:gen04317"}, {"comment": "", "name": "Pl du 30 Paul Cabet", "coord": {"lat": "47.321738", "lon": "5.050548"}, "id": "stop_area:G21:SA:gen03694"}, {"comment": "", "name": "Lyc\u00e9e H. Fontaine", "coord": {"lat": "47.318788", "lon": "5.05084"}, "id": "stop_area:CGD:SA:1005"}, {"comment": "", "name": "gare de Dijon-Porte-Neuve", "coord": {"lat": "47.3228", "lon": "5.054864"}, "id": "stop_area:SCF:SA:SAOCE87713008"}, {"comment": "", "name": "Strasbourg", "coord": {"lat": "47.321503", "lon": "5.057991"}, "id": "stop_area:CGD:SA:1196"}, {"comment": "", "name": "Lyc\u00e9e Carnot", "coord": {"lat": "47.323582", "lon": "5.049565"}, "id": "stop_area:CGD:SA:790"}, {"comment": "", "name": "Pl du 30 Simone Weil", "coord": {"lat": "47.321389", "lon": "5.051551"}, "id": "stop_area:G21:SA:gen06851"}, {"comment": "", "name": "Voltaire", "coord": {"lat": "47.318871", "lon": "5.052053"}, "id": "stop_area:CGD:SA:1236"}, {"comment": "", "name": "Champmaillot", "coord": {"lat": "47.318506", "lon": "5.055509"}, "id": "stop_area:CGD:SA:801"}, {"comment": "", "name": "Creux D'enfer", "coord": {"lat": "47.317565", "lon": "5.058393"}, "id": "stop_area:CGD:SA:855"}, {"comment": "", "name": "D\u00e9fense", "coord": {"lat": "47.317269", "lon": "5.061607"}, "id": "stop_area:CGD:SA:890"}, {"comment": "", "name": "Boulanger", "coord": {"lat": "47.317203", "lon": "5.064198"}, "id": "stop_area:CGD:SA:762"}, {"comment": "", "name": "Jeanne d'Arc", "coord": {"lat": "47.31811", "lon": "5.065448"}, "id": "stop_area:CGD:SA:955"}, {"comment": "", "name": "Fac. des Sciences", "coord": {"lat": "47.315438", "lon": "5.064439"}, "id": "stop_area:CGD:SA:901"}, {"comment": "", "name": "Erasme", "coord": {"lat": "47.315141", "lon": "5.067282"}, "id": "stop_area:CGD:SA:1271"}, {"comment": "", "name": "Foncegrive Ecole", "coord": {"lat": "47.611363", "lon": "5.156117"}, "id": "stop_area:G21:SA:gen02507"}, {"comment": "", "name": "Vernois V Transco", "coord": {"lat": "47.645765", "lon": "5.144777"}, "id": "stop_area:G21:SA:gen06857"}, {"comment": "", "name": "Chaignay", "coord": {"lat": "47.476115", "lon": "5.071167"}, "id": "stop_area:G21:SA:gen03894"}, {"comment": "", "name": "IS Gendarmerie", "coord": {"lat": "47.517198", "lon": "5.108484"}, "id": "stop_area:G21:SA:gen05455"}, {"comment": "", "name": "Is Sainte Marie", "coord": {"lat": "47.517076", "lon": "5.108934"}, "id": "stop_area:G21:SA:gen05484"}, {"comment": "", "name": "Is Gendarmerie", "coord": {"lat": "47.517198", "lon": "5.108483"}, "id": "stop_area:G21:SA:gen03549"}, {"comment": "", "name": "Is Place Villeneuve", "coord": {"lat": "47.519576", "lon": "5.109416"}, "id": "stop_area:G21:SA:gen03999"}, {"comment": "", "name": "Is Ecole J. D Arc", "coord": {"lat": "47.520428", "lon": "5.109169"}, "id": "stop_area:G21:SA:gen02319"}, {"comment": "", "name": "Poste", "coord": {"lat": "47.521286", "lon": "5.114409"}, "id": "stop_area:G21:SA:gen04794"}, {"comment": "", "name": "Is A. France", "coord": {"lat": "47.51978", "lon": "5.113401"}, "id": "stop_area:G21:SA:gen02317"}, {"comment": "", "name": "gare de Is-sur-Tille", "coord": {"lat": "47.520228", "lon": "5.129833"}, "id": "stop_area:SCF:SA:SAOCE87713859"}, {"comment": "", "name": "Pichanges", "coord": {"lat": "47.462032", "lon": "5.14928"}, "id": "stop_area:G21:SA:gen05387"}, {"comment": "", "name": "Spoy eglise", "coord": {"lat": "47.445582", "lon": "5.18888"}, "id": "stop_area:G21:SA:gen05386"}, {"comment": "", "name": "Ferme Champ Brulet", "coord": {"lat": "47.49005", "lon": "5.208956"}, "id": "stop_area:G21:SA:gen04497"}, {"comment": "", "name": "Veronnes ecole", "coord": {"lat": "47.534562", "lon": "5.230464"}, "id": "stop_area:G21:SA:gen03467"}, {"comment": "", "name": "Chazeuil arret Trans", "coord": {"lat": "47.559017", "lon": "5.275566"}, "id": "stop_area:G21:SA:gen04198"}, {"comment": "", "name": "Sacquenay Transco", "coord": {"lat": "47.590529", "lon": "5.31767"}, "id": "stop_area:G21:SA:gen03847"}, {"comment": "", "name": "Dijon Col.Pouilly", "coord": {"lat": "47.340899", "lon": "5.054447"}, "id": "stop_area:G21:SA:gen02346"}, {"comment": "", "name": "Joffre", "coord": {"lat": "47.340212", "lon": "5.053171"}, "id": "stop_area:CGD:SA:1272"}, {"comment": "", "name": "Coll\u00e8ge Clos de Pouilly", "coord": {"lat": "47.341282", "lon": "5.051299"}, "id": "stop_area:CGD:SA:956"}, {"comment": "", "name": "Quantin", "coord": {"lat": "47.340933", "lon": "5.05714"}, "id": "stop_area:CGD:SA:1125"}, {"comment": "", "name": "Poste", "coord": {"lat": "47.518721", "lon": "5.178338"}, "id": "stop_area:G21:SA:gen03389"}, {"comment": "", "name": "Is College", "coord": {"lat": "47.526391", "lon": "5.104178"}, "id": "stop_area:G21:SA:gen03995"}, {"comment": "", "name": "Bellefond Ecole", "coord": {"lat": "47.379708", "lon": "5.069078"}, "id": "stop_area:G21:SA:gen05513"}, {"comment": "", "name": "Bellefond ClairVallo", "coord": {"lat": "47.381024", "lon": "5.064772"}, "id": "stop_area:G21:SA:gen05512"}, {"comment": "", "name": "Norges Source", "coord": {"lat": "47.406566", "lon": "5.078568"}, "id": "stop_area:G21:SA:gen04459"}, {"comment": "", "name": "Norges Bergerie", "coord": {"lat": "47.404218", "lon": "5.085288"}, "id": "stop_area:G21:SA:gen04115"}, {"comment": "", "name": "Norges Charmes", "coord": {"lat": "47.409536", "lon": "5.077408"}, "id": "stop_area:G21:SA:gen03008"}, {"comment": "", "name": "Bretigny Place Ascen", "coord": {"lat": "47.398509", "lon": "5.100529"}, "id": "stop_area:G21:SA:gen01942"}, {"comment": "", "name": "Bretigny Eglise", "coord": {"lat": "47.397746", "lon": "5.105394"}, "id": "stop_area:G21:SA:gen01943"}, {"comment": "", "name": "Bretigny Lot Hauteri", "coord": {"lat": "47.401006", "lon": "5.110138"}, "id": "stop_area:G21:SA:gen04230"}, {"comment": "", "name": "Clenay S.B.M", "coord": {"lat": "47.403244", "lon": "5.118208"}, "id": "stop_area:G21:SA:gen04200"}, {"comment": "", "name": "Clenay Centre", "coord": {"lat": "47.40517", "lon": "5.122286"}, "id": "stop_area:G21:SA:gen04199"}, {"comment": "", "name": "StJulien Lotissement", "coord": {"lat": "47.401844", "lon": "5.131458"}, "id": "stop_area:G21:SA:gen02930"}, {"comment": "", "name": "Ruffey Centre", "coord": {"lat": "47.36647", "lon": "5.080722"}, "id": "stop_area:G21:SA:gen04450"}, {"comment": "", "name": "Ruffey E Echirey", "coord": {"lat": "47.370316", "lon": "5.0837"}, "id": "stop_area:G21:SA:gen03846"}, {"comment": "", "name": "gare de Ruffey", "coord": {"lat": "47.370702", "lon": "5.079387"}, "id": "stop_area:SCF:SA:SAOCE87713826"}, {"comment": "", "name": "St Julien Cimetiere", "coord": {"lat": "47.40132", "lon": "5.147538"}, "id": "stop_area:G21:SA:gen02929"}, {"comment": "", "name": "St Julien Mairie", "coord": {"lat": "47.401406", "lon": "5.138395"}, "id": "stop_area:G21:SA:gen02928"}, {"comment": "", "name": "Brognon Mairie", "coord": {"lat": "47.404134", "lon": "5.164988"}, "id": "stop_area:G21:SA:gen04219"}, {"comment": "", "name": "Flacey", "coord": {"lat": "47.430511", "lon": "5.150416"}, "id": "stop_area:G21:SA:gen04190"}, {"comment": "", "name": "Messigny Mare", "coord": {"lat": "47.403066", "lon": "5.016981"}, "id": "stop_area:G21:SA:gen04075"}, {"comment": "", "name": "Messigny Croix", "coord": {"lat": "47.402665", "lon": "5.018751"}, "id": "stop_area:G21:SA:gen04074"}, {"comment": "", "name": "Messigny Moulin", "coord": {"lat": "47.401555", "lon": "5.016176"}, "id": "stop_area:G21:SA:gen04076"}, {"comment": "", "name": "Saussy", "coord": {"lat": "47.467614", "lon": "4.961602"}, "id": "stop_area:G21:SA:gen04311"}, {"comment": "", "name": "Curtil Saint Seine", "coord": {"lat": "47.449116", "lon": "4.927348"}, "id": "stop_area:G21:SA:gen03943"}, {"comment": "", "name": "Messigny Chateau", "coord": {"lat": "47.410443", "lon": "5.015163"}, "id": "stop_area:G21:SA:gen04073"}, {"comment": "", "name": "Messigny Jouvence", "coord": {"lat": "47.408921", "lon": "5.014822"}, "id": "stop_area:G21:SA:gen05548"}, {"comment": "", "name": "Messigny Centre", "coord": {"lat": "47.405755", "lon": "5.017447"}, "id": "stop_area:G21:SA:gen04072"}, {"comment": "", "name": "Asnieres Eglise", "coord": {"lat": "47.384995", "lon": "5.044746"}, "id": "stop_area:G21:SA:gen03633"}, {"comment": "", "name": "Asnieres BoisGrottes", "coord": {"lat": "47.385563", "lon": "5.043499"}, "id": "stop_area:G21:SA:gen03632"}, {"comment": "", "name": "Asnieres Crais", "coord": {"lat": "47.386159", "lon": "5.040087"}, "id": "stop_area:G21:SA:gen03634"}, {"comment": "", "name": "Savigny Mairie", "coord": {"lat": "47.430766", "lon": "5.052659"}, "id": "stop_area:G21:SA:gen03263"}, {"comment": "", "name": "Savigny Mare", "coord": {"lat": "47.429646", "lon": "5.054326"}, "id": "stop_area:G21:SA:gen03262"}, {"comment": "", "name": "Savigny Lotissem", "coord": {"lat": "47.433896", "lon": "5.053482"}, "id": "stop_area:G21:SA:gen03261"}, {"comment": "", "name": "Epagny", "coord": {"lat": "47.448431", "lon": "5.059265"}, "id": "stop_area:G21:SA:gen03956"}, {"comment": "", "name": "Marsannay Rte Epagny", "coord": {"lat": "47.441335", "lon": "5.08915"}, "id": "stop_area:G21:SA:gen05276"}, {"comment": "", "name": "Marsannay St Andre", "coord": {"lat": "47.439042", "lon": "5.094736"}, "id": "stop_area:G21:SA:gen04062"}, {"comment": "", "name": "Parc Sports Strasbou", "coord": {"lat": "47.326347", "lon": "5.044517"}, "id": "stop_area:G21:SA:gen04503"}, {"comment": "", "name": "Jean Jacques Rousseau", "coord": {"lat": "47.325113", "lon": "5.044944"}, "id": "stop_area:CGD:SA:954"}, {"comment": "", "name": "Tr\u00e9mouille", "coord": {"lat": "47.325676", "lon": "5.043172"}, "id": "stop_area:CGD:SA:1078"}, {"comment": "", "name": "R\u00e9publique", "coord": {"lat": "47.326552", "lon": "5.04473"}, "id": "stop_area:CGD:SA:1153"}, {"comment": "", "name": "Pr\u00e9fecture 1", "coord": {"lat": "47.32432", "lon": "5.041886"}, "id": "stop_area:CGD:SA:1282"}, {"comment": "", "name": "Dijon Place Wilson", "coord": {"lat": "47.316347", "lon": "5.04455"}, "id": "stop_area:G21:SA:gen03618"}, {"comment": "", "name": "Notre-dame 1", "coord": {"lat": "47.322927", "lon": "5.041047"}, "id": "stop_area:CGD:SA:1284"}, {"comment": "", "name": "Beaux Arts 1", "coord": {"lat": "47.321947", "lon": "5.04252"}, "id": "stop_area:CGD:SA:1286"}, {"comment": "", "name": "Th\u00e9\u00e2tre 2", "coord": {"lat": "47.322138", "lon": "5.043628"}, "id": "stop_area:CGD:SA:1289"}, {"comment": "", "name": "Roussin", "coord": {"lat": "47.319975", "lon": "5.039098"}, "id": "stop_area:CGD:SA:1147"}, {"comment": "", "name": "Biblioth\u00e8que", "coord": {"lat": "47.318938", "lon": "5.043254"}, "id": "stop_area:CGD:SA:747"}, {"comment": "", "name": "Wilson Eglise St Pie", "coord": {"lat": "47.316155", "lon": "5.04243"}, "id": "stop_area:G21:SA:gen06852"}, {"comment": "", "name": "Cordeliers 1", "coord": {"lat": "47.318755", "lon": "5.040479"}, "id": "stop_area:CGD:SA:1292"}, {"comment": "", "name": "Cordeliers 2", "coord": {"lat": "47.318755", "lon": "5.040479"}, "id": "stop_area:CGD:SA:1293"}, {"comment": "", "name": "Biblioth\u00e8que 2", "coord": {"lat": "47.318643", "lon": "5.043359"}, "id": "stop_area:CGD:SA:1291"}, {"comment": "", "name": "Transvaal", "coord": {"lat": "47.315434", "lon": "5.037981"}, "id": "stop_area:CGD:SA:1218"}, {"comment": "", "name": "Bordot", "coord": {"lat": "47.312699", "lon": "5.040027"}, "id": "stop_area:CGD:SA:759"}, {"comment": "", "name": "Princes de Cond\u00e9", "coord": {"lat": "47.313272", "lon": "5.044218"}, "id": "stop_area:CGD:SA:1113"}, {"comment": "", "name": "ESPE", "coord": {"lat": "47.310185", "lon": "5.038418"}, "id": "stop_area:CGD:SA:950"}, {"comment": "", "name": "Lyc\u00e9e le Castel", "coord": {"lat": "47.313076", "lon": "5.03642"}, "id": "stop_area:CGD:SA:791"}, {"comment": "", "name": "Alger", "coord": {"lat": "47.311903", "lon": "5.032867"}, "id": "stop_area:CGD:SA:1007"}, {"comment": "", "name": "Coll\u00e8ge le Parc", "coord": {"lat": "47.310549", "lon": "5.033043"}, "id": "stop_area:CGD:SA:839"}, {"comment": "", "name": "Milsand", "coord": {"lat": "47.308743", "lon": "5.038695"}, "id": "stop_area:CGD:SA:1033"}, {"comment": "", "name": "Blanchisseries", "coord": {"lat": "47.307428", "lon": "5.037392"}, "id": "stop_area:CGD:SA:753"}, {"comment": "", "name": "Dumont", "coord": {"lat": "47.314281", "lon": "5.041457"}, "id": "stop_area:CGD:SA:888"}, {"comment": "", "name": "Baudin", "coord": {"lat": "47.315501", "lon": "5.045701"}, "id": "stop_area:CGD:SA:737"}, {"comment": "", "name": "Theattre", "coord": {"lat": "47.316347", "lon": "5.04455"}, "id": "stop_area:G21:SA:gen06868"}, {"comment": "", "name": "De Musset", "coord": {"lat": "47.314267", "lon": "5.048212"}, "id": "stop_area:CGD:SA:873"}, {"comment": "", "name": "Transvaal", "coord": {"lat": "47.316155", "lon": "5.04243"}, "id": "stop_area:G21:SA:gen06869"}, {"comment": "", "name": "Th\u00e9\u00e2tre", "coord": {"lat": "47.320978", "lon": "5.043583"}, "id": "stop_area:CGD:SA:1208"}, {"comment": "", "name": "St-Michel", "coord": {"lat": "47.321278", "lon": "5.045358"}, "id": "stop_area:CGD:SA:1190"}, {"comment": "", "name": "Saumaise", "coord": {"lat": "47.319672", "lon": "5.046693"}, "id": "stop_area:CGD:SA:1169"}, {"comment": "", "name": "Buffon", "coord": {"lat": "47.320221", "lon": "5.045159"}, "id": "stop_area:CGD:SA:771"}, {"comment": "", "name": "Pr\u00e9fecture 2", "coord": {"lat": "47.323825", "lon": "5.0419"}, "id": "stop_area:CGD:SA:1283"}, {"comment": "", "name": "Notre-Dame 2", "coord": {"lat": "47.322647", "lon": "5.041086"}, "id": "stop_area:CGD:SA:1285"}, {"comment": "", "name": "Beaux Arts 2", "coord": {"lat": "47.321947", "lon": "5.04252"}, "id": "stop_area:CGD:SA:1287"}, {"comment": "", "name": "Th\u00e9\u00e2tre 1", "coord": {"lat": "47.320783", "lon": "5.04307"}, "id": "stop_area:CGD:SA:1288"}, {"comment": "", "name": "Grangier", "coord": {"lat": "47.322649", "lon": "5.037539"}, "id": "stop_area:CGD:SA:932"}, {"comment": "", "name": "Poste", "coord": {"lat": "47.32354", "lon": "5.036776"}, "id": "stop_area:CGD:SA:1260"}, {"comment": "", "name": "Darcy S\u00e9vign\u00e9", "coord": {"lat": "47.323209", "lon": "5.032841"}, "id": "stop_area:CGD:SA:867"}, {"comment": "", "name": "St-B\u00e9nigne", "coord": {"lat": "47.321478", "lon": "5.03372"}, "id": "stop_area:CGD:SA:1182"}, {"comment": "", "name": "Gare SNCF S\u00e9vign\u00e9", "coord": {"lat": "47.322467", "lon": "5.030316"}, "id": "stop_area:CGD:SA:1162"}, {"comment": "", "name": "Gare SNCF", "coord": {"lat": "47.322417", "lon": "5.030889"}, "id": "stop_area:CGD:SA:917"}, {"comment": "", "name": "Dubois", "coord": {"lat": "47.3251", "lon": "5.031881"}, "id": "stop_area:CGD:SA:886"}, {"comment": "", "name": "Bossuet", "coord": {"lat": "47.321082", "lon": "5.036948"}, "id": "stop_area:CGD:SA:760"}, {"comment": "", "name": "De Brosses", "coord": {"lat": "47.324166", "lon": "5.036954"}, "id": "stop_area:CGD:SA:869"}, {"comment": "", "name": "Godrans", "coord": {"lat": "47.325336", "lon": "5.039084"}, "id": "stop_area:CGD:SA:927"}, {"comment": "", "name": "Dupuis", "coord": {"lat": "47.326377", "lon": "5.038442"}, "id": "stop_area:CGD:SA:889"}, {"comment": "", "name": "Foch Gare", "coord": {"lat": "47.323509", "lon": "5.030375"}, "id": "stop_area:CGD:SA:907"}, {"comment": "", "name": "DIJON Gare", "coord": {"lat": "47.32332", "lon": "5.028267"}, "id": "stop_area:CGD:SA:916"}, {"comment": "", "name": "Spuller", "coord": {"lat": "47.326131", "lon": "5.030269"}, "id": "stop_area:CGD:SA:1176"}, {"comment": "", "name": "SNCF Brifaut", "coord": {"lat": "47.324403", "lon": "5.027739"}, "id": "stop_area:CGD:SA:1160"}, {"comment": "", "name": "Bagatelle", "coord": {"lat": "47.323473", "lon": "5.022457"}, "id": "stop_area:CGD:SA:728"}, {"comment": "", "name": "Albert 1er", "coord": {"lat": "47.32242", "lon": "5.01934"}, "id": "stop_area:CGD:SA:707"}, {"comment": "", "name": "Perri\u00e8res", "coord": {"lat": "47.322959", "lon": "5.019221"}, "id": "stop_area:CGD:SA:1087"}, {"comment": "", "name": "Nodot", "coord": {"lat": "47.322542", "lon": "5.024773"}, "id": "stop_area:CGD:SA:1058"}, {"comment": "", "name": "SNCF Vincenot", "coord": {"lat": "47.322435", "lon": "5.026661"}, "id": "stop_area:CGD:SA:1163"}, {"comment": "", "name": "Darcy Devosge", "coord": {"lat": "47.324092", "lon": "5.034316"}, "id": "stop_area:CGD:SA:866"}, {"comment": "", "name": "Darcy Hotel LaCloche", "coord": {"lat": "47.32411", "lon": "5.033618"}, "id": "stop_area:G21:SA:gen02388"}, {"comment": "", "name": "R\u00e9publique 1", "coord": {"lat": "47.32664", "lon": "5.044095"}, "id": "stop_area:CGD:SA:1155"}, {"comment": "", "name": "Dijon Sevigne", "coord": {"lat": "47.326759", "lon": "5.044152"}, "id": "stop_area:G21:SA:gen05403"}, {"comment": "", "name": "Cours Fleury", "coord": {"lat": "47.327786", "lon": "5.042068"}, "id": "stop_area:CGD:SA:853"}, {"comment": "", "name": "Barbe", "coord": {"lat": "47.328963", "lon": "5.039665"}, "id": "stop_area:CGD:SA:731"}, {"comment": "", "name": "Billardon", "coord": {"lat": "47.32885", "lon": "5.069919"}, "id": "stop_area:CGD:SA:750"}, {"comment": "", "name": "Bouteiller", "coord": {"lat": "47.326449", "lon": "5.068866"}, "id": "stop_area:CGD:SA:768"}, {"comment": "", "name": "St Apollinaire Jacq", "coord": {"lat": "47.331508", "lon": "5.085875"}, "id": "stop_area:G21:SA:gen03849"}, {"comment": "", "name": "Saint-Apollinaire Mairie", "coord": {"lat": "47.333727", "lon": "5.085358"}, "id": "stop_area:CGD:SA:1165"}, {"comment": "", "name": "Moirey", "coord": {"lat": "47.333997", "lon": "5.083472"}, "id": "stop_area:CGD:SA:1036"}, {"comment": "", "name": "Jacquat", "coord": {"lat": "47.331417", "lon": "5.084822"}, "id": "stop_area:CGD:SA:952"}, {"comment": "", "name": "Gauthier", "coord": {"lat": "47.330952", "lon": "5.081879"}, "id": "stop_area:CGD:SA:918"}, {"comment": "", "name": "ST-APOLLINAIRE Pr\u00e9 Thomas", "coord": {"lat": "47.327768", "lon": "5.085362"}, "id": "stop_area:CGD:SA:1181"}, {"comment": "", "name": "Paquier d'Aupr\u00e9", "coord": {"lat": "47.331821", "lon": "5.087517"}, "id": "stop_area:CGD:SA:1069"}, {"comment": "", "name": "Tirbaude", "coord": {"lat": "47.328943", "lon": "5.089143"}, "id": "stop_area:CGD:SA:1212"}, {"comment": "", "name": "Abb\u00e9 Pierre", "coord": {"lat": "47.33031", "lon": "5.089001"}, "id": "stop_area:CGD:SA:705"}, {"comment": "", "name": "Champ Prieur", "coord": {"lat": "47.330655", "lon": "5.092647"}, "id": "stop_area:CGD:SA:798"}, {"comment": "", "name": "Bons Compagnons", "coord": {"lat": "47.331558", "lon": "5.091369"}, "id": "stop_area:CGD:SA:757"}, {"comment": "", "name": "Opaline", "coord": {"lat": "47.333103", "lon": "5.090562"}, "id": "stop_area:CGD:SA:1062"}, {"comment": "", "name": "Marie de Bourgogne", "coord": {"lat": "47.334064", "lon": "5.088727"}, "id": "stop_area:CGD:SA:1024"}, {"comment": "", "name": "Varois Chaignot Bas", "coord": {"lat": "47.348797", "lon": "5.125716"}, "id": "stop_area:G21:SA:gen03442"}, {"comment": "", "name": "Varois Mariller", "coord": {"lat": "47.349267", "lon": "5.125858"}, "id": "stop_area:G21:SA:gen04826"}, {"comment": "", "name": "Varois Ecole", "coord": {"lat": "47.350558", "lon": "5.130477"}, "id": "stop_area:G21:SA:gen04370"}, {"comment": "", "name": "Varois   Chaignot", "coord": {"lat": "47.351142", "lon": "5.126548"}, "id": "stop_area:G21:SA:gen05477"}, {"comment": "", "name": "Orgeux RD960", "coord": {"lat": "47.361508", "lon": "5.153513"}, "id": "stop_area:G21:SA:gen03024"}, {"comment": "", "name": "Orgeux Meix chateau", "coord": {"lat": "47.358551", "lon": "5.149624"}, "id": "stop_area:G21:SA:gen04789"}, {"comment": "", "name": "Arceau Arcelot", "coord": {"lat": "47.378276", "lon": "5.190669"}, "id": "stop_area:G21:SA:gen05411"}, {"comment": "", "name": "Arceau Village", "coord": {"lat": "47.385454", "lon": "5.190064"}, "id": "stop_area:G21:SA:gen05257"}, {"comment": "", "name": "Fouchanges  Arceau", "coord": {"lat": "47.386404", "lon": "5.19009"}, "id": "stop_area:G21:SA:gen01774"}, {"comment": "", "name": "Beire Petit Beire", "coord": {"lat": "47.409636", "lon": "5.203751"}, "id": "stop_area:G21:SA:gen04223"}, {"comment": "", "name": "Beire Centre", "coord": {"lat": "47.416113", "lon": "5.205799"}, "id": "stop_area:G21:SA:gen05500"}, {"comment": "", "name": "Beire Ch. Vesvrotte", "coord": {"lat": "47.408359", "lon": "5.215292"}, "id": "stop_area:G21:SA:gen01662"}, {"comment": "", "name": "Vievigne Transco", "coord": {"lat": "47.435791", "lon": "5.230056"}, "id": "stop_area:G21:SA:gen04420"}, {"comment": "", "name": "Beze Les tranchees", "coord": {"lat": "47.463767", "lon": "5.270167"}, "id": "stop_area:G21:SA:gen01695"}, {"comment": "", "name": "Beze Centre Transco", "coord": {"lat": "47.468726", "lon": "5.270326"}, "id": "stop_area:G21:SA:gen05503"}, {"comment": "", "name": "Beze Champ Munier", "coord": {"lat": "47.472505", "lon": "5.274637"}, "id": "stop_area:G21:SA:gen05504"}, {"comment": "", "name": "Bourberain Rte Beze", "coord": {"lat": "47.497326", "lon": "5.293142"}, "id": "stop_area:G21:SA:gen04802"}, {"comment": "", "name": "Bourberain Centre", "coord": {"lat": "47.500225", "lon": "5.296349"}, "id": "stop_area:G21:SA:gen05502"}, {"comment": "", "name": "Fontaine Chateau", "coord": {"lat": "47.526743", "lon": "5.370371"}, "id": "stop_area:G21:SA:gen03517"}, {"comment": "", "name": "FontaineF Maladiere", "coord": {"lat": "47.52756", "lon": "5.373322"}, "id": "stop_area:G21:SA:gen05501"}, {"comment": "", "name": "St Seine Chateau", "coord": {"lat": "47.516285", "lon": "5.425581"}, "id": "stop_area:G21:SA:gen04335"}, {"comment": "", "name": "Coll.champollion", "coord": {"lat": "47.332161", "lon": "5.073977"}, "id": "stop_area:CGD:SA:833"}, {"comment": "", "name": "Castelnau", "coord": {"lat": "47.329691", "lon": "5.073924"}, "id": "stop_area:CGD:SA:792"}, {"comment": "", "name": "Les Jardins", "coord": {"lat": "47.335212", "lon": "5.075484"}, "id": "stop_area:CGD:SA:992"}, {"comment": "", "name": "Vigne aux Chiens", "coord": {"lat": "47.332983", "lon": "5.076125"}, "id": "stop_area:CGD:SA:1231"}, {"comment": "", "name": "Long\u00e8nes", "coord": {"lat": "47.330235", "lon": "5.077175"}, "id": "stop_area:CGD:SA:1002"}, {"comment": "", "name": "L\u00e9chenet", "coord": {"lat": "47.331594", "lon": "5.077364"}, "id": "stop_area:CGD:SA:1011"}, {"comment": "", "name": "Lux Fontaine", "coord": {"lat": "47.490838", "lon": "5.211741"}, "id": "stop_area:G21:SA:gen05505"}, {"comment": "", "name": "Chazeuil Place Ecole", "coord": {"lat": "47.559314", "lon": "5.270473"}, "id": "stop_area:G21:SA:gen02074"}, {"comment": "", "name": "Chaume Mairie", "coord": {"lat": "47.570474", "lon": "5.350256"}, "id": "stop_area:G21:SA:gen02064"}, {"comment": "", "name": "Courchamp RD28 RD30", "coord": {"lat": "47.597184", "lon": "5.373594"}, "id": "stop_area:G21:SA:gen05438"}, {"comment": "", "name": "St Maurice Romagne", "coord": {"lat": "47.579762", "lon": "5.407984"}, "id": "stop_area:G21:SA:gen02954"}, {"comment": "", "name": "St Maurice Transco", "coord": {"lat": "47.578805", "lon": "5.407632"}, "id": "stop_area:G21:SA:gen04441"}, {"comment": "", "name": "Villeneuve", "coord": {"lat": "47.565504", "lon": "5.43642"}, "id": "stop_area:G21:SA:gen04096"}, {"comment": "", "name": "Autrey les Gray", "coord": {"lat": "47.486638", "lon": "5.490263"}, "id": "stop_area:G21:SA:gen05027"}, {"comment": "", "name": "Bouhans", "coord": {"lat": "47.479014", "lon": "5.505746"}, "id": "stop_area:G21:SA:gen05032"}, {"comment": "", "name": "Feurg", "coord": {"lat": "47.479014", "lon": "5.505746"}, "id": "stop_area:G21:SA:gen05033"}, {"comment": "", "name": "Nantilly", "coord": {"lat": "47.458623", "lon": "5.527099"}, "id": "stop_area:G21:SA:gen05034"}, {"comment": "", "name": "Arc Gr  Port Poirier", "coord": {"lat": "46.665038", "lon": "4.85914"}, "id": "stop_area:G21:SA:gen05030"}, {"comment": "", "name": "Gray-Gare-Routi\u00e8re", "coord": {"lat": "47.447909", "lon": "5.595844"}, "id": "stop_area:SCF:SA:SAOCE87438655"}, {"comment": "", "name": "Bois Guillaume", "coord": {"lat": "47.336482", "lon": "5.10173"}, "id": "stop_area:G21:SA:gen06850"}, {"comment": "", "name": "Dijon Montchapet Clo", "coord": {"lat": "0.0", "lon": "0.0"}, "id": "stop_area:G21:SA:gen03586"}, {"comment": "", "name": "Dijon Saint Mesmin", "coord": {"lat": "47.336914", "lon": "5.020084"}, "id": "stop_area:G21:SA:gen03619"}, {"comment": "", "name": "Glycines", "coord": {"lat": "47.33954", "lon": "5.021623"}, "id": "stop_area:CGD:SA:926"}, {"comment": "", "name": "Combottes", "coord": {"lat": "47.339791", "lon": "5.0172"}, "id": "stop_area:CGD:SA:842"}, {"comment": "", "name": "St-Luc", "coord": {"lat": "47.341346", "lon": "5.018073"}, "id": "stop_area:CGD:SA:1187"}, {"comment": "", "name": "Confr\u00e9rie", "coord": {"lat": "47.343097", "lon": "5.019015"}, "id": "stop_area:CGD:SA:844"}, {"comment": "", "name": "Mare", "coord": {"lat": "47.343784", "lon": "5.016374"}, "id": "stop_area:CGD:SA:1022"}, {"comment": "", "name": "Les Cr\u00e9ots", "coord": {"lat": "47.341758", "lon": "5.01467"}, "id": "stop_area:CGD:SA:991"}, {"comment": "", "name": "Peguy", "coord": {"lat": "47.337826", "lon": "5.016572"}, "id": "stop_area:CGD:SA:1083"}, {"comment": "", "name": "Amandiers", "coord": {"lat": "47.337615", "lon": "5.023122"}, "id": "stop_area:CGD:SA:712"}, {"comment": "", "name": "Houdart", "coord": {"lat": "47.336094", "lon": "5.025071"}, "id": "stop_area:CGD:SA:946"}, {"comment": "", "name": "Suisse", "coord": {"lat": "47.334834", "lon": "5.02428"}, "id": "stop_area:CGD:SA:1198"}, {"comment": "", "name": "Pompon", "coord": {"lat": "47.333417", "lon": "5.023507"}, "id": "stop_area:CGD:SA:1108"}, {"comment": "", "name": "Lyc\u00e9e Montchapet", "coord": {"lat": "47.336825", "lon": "5.017429"}, "id": "stop_area:CGD:SA:1009"}, {"comment": "", "name": "Chancenotte", "coord": {"lat": "47.305221", "lon": "5.047578"}, "id": "stop_area:CGD:SA:806"}, {"comment": "", "name": "Piscine Carrousel", "coord": {"lat": "47.307081", "lon": "5.046816"}, "id": "stop_area:CGD:SA:1098"}, {"comment": "", "name": "Parc", "coord": {"lat": "47.30239", "lon": "5.048827"}, "id": "stop_area:CGD:SA:1070"}, {"comment": "", "name": "Barbusse", "coord": {"lat": "47.301636", "lon": "5.050066"}, "id": "stop_area:CGD:SA:732"}, {"comment": "", "name": "Coll\u00e8ge Lentill\u00e8res", "coord": {"lat": "47.305252", "lon": "5.052287"}, "id": "stop_area:CGD:SA:837"}, {"comment": "", "name": "Loti", "coord": {"lat": "47.334279", "lon": "5.017389"}, "id": "stop_area:CGD:SA:1003"}, {"comment": "", "name": "Clomiers", "coord": {"lat": "47.333304", "lon": "5.016742"}, "id": "stop_area:CGD:SA:829"}, {"comment": "", "name": "St-Mesmin", "coord": {"lat": "47.332513", "lon": "5.018245"}, "id": "stop_area:CGD:SA:1189"}, {"comment": "", "name": "Ziem", "coord": {"lat": "47.331237", "lon": "5.021636"}, "id": "stop_area:CGD:SA:1245"}, {"comment": "", "name": "Arandes", "coord": {"lat": "47.334918", "lon": "5.014923"}, "id": "stop_area:CGD:SA:713"}, {"comment": "", "name": "Ch\u00e8vre Morte", "coord": {"lat": "47.332013", "lon": "5.014559"}, "id": "stop_area:CGD:SA:824"}, {"comment": "", "name": "Leclerc", "coord": {"lat": "47.330982", "lon": "5.011853"}, "id": "stop_area:CGD:SA:908"}, {"comment": "", "name": "Lib\u00e9ration", "coord": {"lat": "47.332485", "lon": "5.010902"}, "id": "stop_area:CGD:SA:996"}, {"comment": "", "name": "Gray Place tilleuls", "coord": {"lat": "47.442238", "lon": "5.590322"}, "id": "stop_area:G21:SA:gen04822"}, {"comment": "", "name": "Gray Delauney", "coord": {"lat": "47.450656", "lon": "5.590221"}, "id": "stop_area:G21:SA:gen05412"}, {"comment": "", "name": "Parc des Sports", "coord": {"lat": "47.322354", "lon": "5.065511"}, "id": "stop_area:CGD:SA:1073"}, {"comment": "", "name": "Urgences CHU", "coord": {"lat": "47.322421", "lon": "5.069596"}, "id": "stop_area:CGD:SA:1220"}, {"comment": "", "name": "CHU - H\u00f4pitaux", "coord": {"lat": "47.320107", "lon": "5.067595"}, "id": "stop_area:CGD:SA:779"}, {"comment": "", "name": "Fac. de M\u00e9decine", "coord": {"lat": "47.319435", "lon": "5.065371"}, "id": "stop_area:CGD:SA:900"}, {"comment": "", "name": "Montmuzard", "coord": {"lat": "47.325054", "lon": "5.065068"}, "id": "stop_area:CGD:SA:1042"}, {"comment": "", "name": "Arc Guillotiere", "coord": {"lat": "47.347628", "lon": "5.18481"}, "id": "stop_area:G21:SA:gen03709"}, {"comment": "", "name": "Arc Champ de foire", "coord": {"lat": "47.34694", "lon": "5.191513"}, "id": "stop_area:G21:SA:gen03767"}, {"comment": "", "name": "Magny St Medard", "coord": {"lat": "47.380458", "lon": "5.253393"}, "id": "stop_area:G21:SA:gen04048"}, {"comment": "", "name": "Magny Mairie", "coord": {"lat": "47.381849", "lon": "5.251678"}, "id": "stop_area:G21:SA:gen05390"}, {"comment": "", "name": "Mirebeau Marronniers", "coord": {"lat": "47.397664", "lon": "5.315693"}, "id": "stop_area:G21:SA:gen04085"}, {"comment": "", "name": "Reneve Transco", "coord": {"lat": "47.402442", "lon": "5.405048"}, "id": "stop_area:G21:SA:gen03834"}, {"comment": "", "name": "Essertenne   Cessey", "coord": {"lat": "47.397189", "lon": "5.478565"}, "id": "stop_area:G21:SA:gen06796"}, {"comment": "", "name": "Mantoche RD70", "coord": {"lat": "47.42144", "lon": "5.52307"}, "id": "stop_area:G21:SA:gen04807"}, {"comment": "", "name": "Gare de Gray", "coord": {"lat": "47.451503", "lon": "5.578282"}, "id": "stop_area:G21:SA:gen05389"}, {"comment": "", "name": "Savolles Transco", "coord": {"lat": "47.376224", "lon": "5.275207"}, "id": "stop_area:G21:SA:gen04434"}, {"comment": "", "name": "Belleneuve Chevreul", "coord": {"lat": "47.361925", "lon": "5.26825"}, "id": "stop_area:G21:SA:gen03729"}, {"comment": "", "name": "Belleneuve Ecole Cen", "coord": {"lat": "47.361864", "lon": "5.264842"}, "id": "stop_area:G21:SA:gen03733"}, {"comment": "", "name": "Belleneuve Le Marais", "coord": {"lat": "47.3585", "lon": "5.259153"}, "id": "stop_area:G21:SA:gen03731"}, {"comment": "", "name": "Arcon  Belleneuve", "coord": {"lat": "47.354637", "lon": "5.282347"}, "id": "stop_area:G21:SA:gen01669"}, {"comment": "", "name": "Trocheres Mairie", "coord": {"lat": "47.34572", "lon": "5.304461"}, "id": "stop_area:G21:SA:gen03414"}, {"comment": "", "name": "Taniot  Tanay", "coord": {"lat": "47.412149", "lon": "5.276332"}, "id": "stop_area:G21:SA:gen04343"}, {"comment": "", "name": "Tanay Transco", "coord": {"lat": "47.412149", "lon": "5.276332"}, "id": "stop_area:G21:SA:gen04342"}, {"comment": "", "name": "Arc Gourmerault", "coord": {"lat": "47.344426", "lon": "5.179041"}, "id": "stop_area:G21:SA:gen03708"}, {"comment": "", "name": "Arc Moulin", "coord": {"lat": "47.341612", "lon": "5.180722"}, "id": "stop_area:G21:SA:gen03587"}, {"comment": "", "name": "Champagne s Vingeann", "coord": {"lat": "47.446987", "lon": "5.391044"}, "id": "stop_area:G21:SA:gen03904"}, {"comment": "", "name": "Beaumont s Vingeanne", "coord": {"lat": "47.464864", "lon": "5.361538"}, "id": "stop_area:G21:SA:gen03861"}, {"comment": "", "name": "Binges Calvaire", "coord": {"lat": "47.33101", "lon": "5.258862"}, "id": "stop_area:G21:SA:gen05469"}, {"comment": "", "name": "Binges Centre", "coord": {"lat": "47.328865", "lon": "5.265953"}, "id": "stop_area:G21:SA:gen05468"}, {"comment": "", "name": "Etevaux D961", "coord": {"lat": "47.322009", "lon": "5.316383"}, "id": "stop_area:G21:SA:gen03961"}, {"comment": "", "name": "St Leger Triey RD961", "coord": {"lat": "47.315344", "lon": "5.364988"}, "id": "stop_area:G21:SA:gen03855"}, {"comment": "", "name": "Vonges Lotissement", "coord": {"lat": "47.298421", "lon": "5.390183"}, "id": "stop_area:G21:SA:gen04408"}, {"comment": "", "name": "Vonges Centre", "coord": {"lat": "47.293797", "lon": "5.401331"}, "id": "stop_area:G21:SA:gen04409"}, {"comment": "", "name": "Pontailler St Jean", "coord": {"lat": "47.301766", "lon": "5.411012"}, "id": "stop_area:G21:SA:gen03071"}, {"comment": "", "name": "Pontailler Monument", "coord": {"lat": "47.304979", "lon": "5.41496"}, "id": "stop_area:G21:SA:gen03594"}, {"comment": "", "name": "Pontailler gare", "coord": {"lat": "47.31231", "lon": "5.409074"}, "id": "stop_area:G21:SA:gen05465"}, {"comment": "", "name": "MaxillySaone Transco", "coord": {"lat": "47.335378", "lon": "5.42439"}, "id": "stop_area:G21:SA:gen02742"}, {"comment": "", "name": "Heuilley Transco", "coord": {"lat": "47.330068", "lon": "5.454538"}, "id": "stop_area:G21:SA:gen02315"}, {"comment": "", "name": "Talmay Monument", "coord": {"lat": "47.355732", "lon": "5.437489"}, "id": "stop_area:G21:SA:gen04341"}, {"comment": "", "name": "Quetigny College", "coord": {"lat": "47.317715", "lon": "5.107957"}, "id": "stop_area:G21:SA:gen03595"}, {"comment": "", "name": "Grand March\u00e9", "coord": {"lat": "47.312371", "lon": "5.103506"}, "id": "stop_area:CGD:SA:763"}, {"comment": "", "name": "Camus", "coord": {"lat": "47.319063", "lon": "5.109733"}, "id": "stop_area:CGD:SA:783"}, {"comment": "", "name": "Pr\u00e9vert", "coord": {"lat": "47.320625", "lon": "5.109152"}, "id": "stop_area:CGD:SA:1119"}, {"comment": "", "name": "Allende", "coord": {"lat": "47.321173", "lon": "5.106182"}, "id": "stop_area:CGD:SA:709"}, {"comment": "", "name": "Quetigny Europe", "coord": {"lat": "47.319532", "lon": "5.104979"}, "id": "stop_area:CGD:SA:1124"}, {"comment": "", "name": "Ronde", "coord": {"lat": "47.317005", "lon": "5.109414"}, "id": "stop_area:CGD:SA:1145"}, {"comment": "", "name": "Cromois", "coord": {"lat": "47.314684", "lon": "5.112721"}, "id": "stop_area:CGD:SA:858"}, {"comment": "", "name": "Quetigny Mairie", "coord": {"lat": "47.312309", "lon": "5.115841"}, "id": "stop_area:CGD:SA:1130"}, {"comment": "", "name": "Quetigny C.cial", "coord": {"lat": "47.31146", "lon": "5.104527"}, "id": "stop_area:CGD:SA:1128"}, {"comment": "", "name": "Arc Gourmerault", "coord": {"lat": "47.344426", "lon": "5.179042"}, "id": "stop_area:G21:SA:gen05474"}, {"comment": "", "name": "Arc Moulin", "coord": {"lat": "47.341612", "lon": "5.180722"}, "id": "stop_area:G21:SA:gen05475"}, {"comment": "", "name": "Arc Ecole", "coord": {"lat": "47.341974", "lon": "5.18825"}, "id": "stop_area:G21:SA:gen03702"}, {"comment": "", "name": "Couternon ZA", "coord": {"lat": "47.323531", "lon": "5.141666"}, "id": "stop_area:G21:SA:gen03804"}, {"comment": "", "name": "Remilly Stade", "coord": {"lat": "47.316964", "lon": "5.205928"}, "id": "stop_area:G21:SA:gen04464"}, {"comment": "", "name": "Remilly Centre", "coord": {"lat": "47.316465", "lon": "5.207529"}, "id": "stop_area:G21:SA:gen03832"}, {"comment": "", "name": "Couternon Bles d Or", "coord": {"lat": "47.329284", "lon": "5.146984"}, "id": "stop_area:G21:SA:gen05478"}, {"comment": "", "name": "Couternon Chato eau", "coord": {"lat": "47.336692", "lon": "5.1502"}, "id": "stop_area:G21:SA:gen05480"}, {"comment": "", "name": "Izier Transco", "coord": {"lat": "0.0", "lon": "0.0"}, "id": "stop_area:G21:SA:gen04269"}, {"comment": "", "name": "Cessey s  Tille", "coord": {"lat": "0.0", "lon": "0.0"}, "id": "stop_area:G21:SA:gen05435"}, {"comment": "", "name": "Chambeire Transco", "coord": {"lat": "0.0", "lon": "0.0"}, "id": "stop_area:G21:SA:gen02002"}, {"comment": "", "name": "Longchamp Eglise", "coord": {"lat": "0.0", "lon": "0.0"}, "id": "stop_area:G21:SA:gen02617"}, {"comment": "", "name": "Longchamp LEP", "coord": {"lat": "0.0", "lon": "0.0"}, "id": "stop_area:G21:SA:gen02618"}, {"comment": "", "name": "Magny Centre", "coord": {"lat": "0.0", "lon": "0.0"}, "id": "stop_area:G21:SA:gen04177"}, {"comment": "", "name": "arret Transco", "coord": {"lat": "0.0", "lon": "0.0"}, "id": "stop_area:G21:SA:gen01804"}, {"comment": "", "name": "Poncey les Athee", "coord": {"lat": "0.0", "lon": "0.0"}, "id": "stop_area:G21:SA:gen05437"}, {"comment": "", "name": "Lamarche Rte Poncey", "coord": {"lat": "0.0", "lon": "0.0"}, "id": "stop_area:G21:SA:gen02577"}, {"comment": "", "name": "Lamarche Centre", "coord": {"lat": "0.0", "lon": "0.0"}, "id": "stop_area:G21:SA:gen02576"}, {"comment": "", "name": "Lamarche Gare", "coord": {"lat": "0.0", "lon": "0.0"}, "id": "stop_area:G21:SA:gen04172"}, {"comment": "", "name": "Perrigny O Village", "coord": {"lat": "0.0", "lon": "0.0"}, "id": "stop_area:G21:SA:gen03048"}, {"comment": "", "name": "Perrigny Croix verte", "coord": {"lat": "0.0", "lon": "0.0"}, "id": "stop_area:G21:SA:gen04452"}, {"comment": "", "name": "Vielverge Poste", "coord": {"lat": "0.0", "lon": "0.0"}, "id": "stop_area:G21:SA:gen04418"}, {"comment": "", "name": "Vielverge Relais", "coord": {"lat": "0.0", "lon": "0.0"}, "id": "stop_area:G21:SA:gen04419"}, {"comment": "", "name": "Soissons Ecole", "coord": {"lat": "0.0", "lon": "0.0"}, "id": "stop_area:G21:SA:gen03323"}, {"comment": "", "name": "Lyc\u00e9e Eiffel", "coord": {"lat": "47.33362", "lon": "5.068977"}, "id": "stop_area:CGD:SA:961"}, {"comment": "", "name": "Dallas CRI", "coord": {"lat": "47.33616", "lon": "5.061798"}, "id": "stop_area:CGD:SA:865"}, {"comment": "", "name": "Boutaric", "coord": {"lat": "47.335001", "lon": "5.06088"}, "id": "stop_area:CGD:SA:767"}, {"comment": "", "name": "Pl. des Savoirs", "coord": {"lat": "47.331296", "lon": "5.067532"}, "id": "stop_area:CGD:SA:1100"}, {"comment": "", "name": "Ste-Bernadette", "coord": {"lat": "47.331374", "lon": "5.065365"}, "id": "stop_area:CGD:SA:1194"}, {"comment": "", "name": "D'Alembert", "coord": {"lat": "47.331197", "lon": "5.063893"}, "id": "stop_area:CGD:SA:862"}, {"comment": "", "name": "Laplace", "coord": {"lat": "47.332634", "lon": "5.063092"}, "id": "stop_area:CGD:SA:978"}, {"comment": "", "name": "Seguin", "coord": {"lat": "47.332786", "lon": "5.06829"}, "id": "stop_area:CGD:SA:1171"}, {"comment": "", "name": "gare de Genlis", "coord": {"lat": "47.244316", "lon": "5.223785"}, "id": "stop_area:SCF:SA:SAOCE87713313"}, {"comment": "", "name": "Coll\u00e8ge Dorgeles", "coord": {"lat": "47.294721", "lon": "5.059717"}, "id": "stop_area:CGD:SA:1249"}, {"comment": "", "name": "Pommerets", "coord": {"lat": "47.294483", "lon": "5.055722"}, "id": "stop_area:CGD:SA:1107"}, {"comment": "", "name": "Fauverney Centre", "coord": {"lat": "47.25458", "lon": "5.143557"}, "id": "stop_area:G21:SA:gen03963"}, {"comment": "", "name": "Rouvres Le Hardi", "coord": {"lat": "47.242154", "lon": "5.141086"}, "id": "stop_area:G21:SA:gen03839"}, {"comment": "", "name": "Rouvres Centre", "coord": {"lat": "47.239029", "lon": "5.142074"}, "id": "stop_area:G21:SA:gen03838"}, {"comment": "", "name": "Rouvres closeau", "coord": {"lat": "47.237213", "lon": "5.135975"}, "id": "stop_area:G21:SA:gen03601"}, {"comment": "", "name": "Abribus", "coord": {"lat": "47.229702", "lon": "5.194459"}, "id": "stop_area:G21:SA:gen03439"}, {"comment": "", "name": "Marliens Transco", "coord": {"lat": "47.212353", "lon": "5.183205"}, "id": "stop_area:G21:SA:gen04060"}, {"comment": "", "name": "Tart le Haut Transco", "coord": {"lat": "47.204274", "lon": "5.204691"}, "id": "stop_area:G21:SA:gen04348"}, {"comment": "", "name": "Tart le Bas Transco", "coord": {"lat": "47.204961", "lon": "5.223885"}, "id": "stop_area:G21:SA:gen04347"}, {"comment": "", "name": "Tart l Abbaye Transc", "coord": {"lat": "47.184908", "lon": "5.242449"}, "id": "stop_area:G21:SA:gen04346"}, {"comment": "", "name": "Treclun Transco", "coord": {"lat": "47.191266", "lon": "5.293329"}, "id": "stop_area:G21:SA:gen04359"}, {"comment": "", "name": "Champdotre", "coord": {"lat": "47.182339", "lon": "5.302698"}, "id": "stop_area:G21:SA:gen03906"}, {"comment": "", "name": "gare de Auxonne", "coord": {"lat": "47.192917", "lon": "5.377167"}, "id": "stop_area:SCF:SA:SAOCE87713347"}, {"comment": "", "name": "Auxonne Centre", "coord": {"lat": "47.193554", "lon": "5.389813"}, "id": "stop_area:G21:SA:gen03715"}, {"comment": "", "name": "Auxonne Colombiere", "coord": {"lat": "47.192649", "lon": "5.407838"}, "id": "stop_area:G21:SA:gen05141"}, {"comment": "", "name": "Genlis Centre", "coord": {"lat": "47.241389", "lon": "5.218635"}, "id": "stop_area:G21:SA:gen05382"}, {"comment": "", "name": "Labergement F Lot", "coord": {"lat": "47.25562", "lon": "5.248311"}, "id": "stop_area:G21:SA:gen03555"}, {"comment": "", "name": "Labergement F centre", "coord": {"lat": "47.258648", "lon": "5.251788"}, "id": "stop_area:G21:SA:gen03554"}, {"comment": "", "name": "Premieres arret Tran", "coord": {"lat": "47.232886", "lon": "5.280706"}, "id": "stop_area:G21:SA:gen03823"}, {"comment": "", "name": "Beire le Fort", "coord": {"lat": "47.23096", "lon": "5.255032"}, "id": "stop_area:G21:SA:gen03865"}, {"comment": "", "name": "Longeault", "coord": {"lat": "47.222494", "lon": "5.255054"}, "id": "stop_area:G21:SA:gen04037"}, {"comment": "", "name": "Pluvault Transco", "coord": {"lat": "47.212552", "lon": "5.253595"}, "id": "stop_area:G21:SA:gen03052"}, {"comment": "", "name": "Pluvet Transco", "coord": {"lat": "47.206217", "lon": "5.266603"}, "id": "stop_area:G21:SA:gen04144"}, {"comment": "", "name": "Soirans Transco", "coord": {"lat": "47.206412", "lon": "5.288125"}, "id": "stop_area:G21:SA:gen04327"}, {"comment": "", "name": "CFA La Noue", "coord": {"lat": "47.291682", "lon": "5.036007"}, "id": "stop_area:CGD:SA:773"}, {"comment": "", "name": "Bertin", "coord": {"lat": "47.293441", "lon": "5.037214"}, "id": "stop_area:CGD:SA:746"}, {"comment": "", "name": "Longvic ZI Est", "coord": {"lat": "47.276326", "lon": "5.05879"}, "id": "stop_area:G21:SA:gen03563"}, {"comment": "", "name": "Longvic ZI", "coord": {"lat": "47.275364", "lon": "5.062057"}, "id": "stop_area:CGD:SA:1001"}, {"comment": "", "name": "Thorey Canal", "coord": {"lat": "47.218999", "lon": "5.132556"}, "id": "stop_area:G21:SA:gen04352"}, {"comment": "", "name": "Thorey Centre", "coord": {"lat": "47.216435", "lon": "5.13511"}, "id": "stop_area:G21:SA:gen04353"}, {"comment": "", "name": "Longecourt Plaine", "coord": {"lat": "47.197055", "lon": "5.147567"}, "id": "stop_area:G21:SA:gen04038"}, {"comment": "", "name": "Izeure Transco Ecole", "coord": {"lat": "47.169184", "lon": "5.137353"}, "id": "stop_area:G21:SA:gen04003"}, {"comment": "", "name": "Bessey mairie", "coord": {"lat": "47.155286", "lon": "5.159084"}, "id": "stop_area:G21:SA:gen03869"}, {"comment": "", "name": "Place", "coord": {"lat": "47.172818", "lon": "5.162292"}, "id": "stop_area:G21:SA:gen03624"}, {"comment": "", "name": "Echigey Transco", "coord": {"lat": "47.183353", "lon": "5.195573"}, "id": "stop_area:G21:SA:gen03954"}, {"comment": "", "name": "Potangey", "coord": {"lat": "47.185137", "lon": "5.159485"}, "id": "stop_area:G21:SA:gen04158"}, {"comment": "", "name": "Ecole", "coord": {"lat": "47.131485", "lon": "5.176524"}, "id": "stop_area:G21:SA:gen01809"}, {"comment": "", "name": "Brazey Pt Hemery", "coord": {"lat": "47.147322", "lon": "5.205322"}, "id": "stop_area:G21:SA:gen03757"}, {"comment": "", "name": "Brazey Brevaille", "coord": {"lat": "47.141363", "lon": "5.212655"}, "id": "stop_area:G21:SA:gen03753"}, {"comment": "", "name": "Brazey Plaine rte Di", "coord": {"lat": "47.13587", "lon": "5.219214"}, "id": "stop_area:G21:SA:gen03758"}, {"comment": "", "name": "Brazey mairie", "coord": {"lat": "47.133332", "lon": "5.216098"}, "id": "stop_area:G21:SA:gen03755"}, {"comment": "", "name": "gare de Brazey-en-Plaine", "coord": {"lat": "47.131571", "lon": "5.212224"}, "id": "stop_area:SCF:SA:SAOCE87713644"}, {"comment": "", "name": "Brazey Meix Cas", "coord": {"lat": "47.129789", "lon": "5.219416"}, "id": "stop_area:G21:SA:gen03756"}, {"comment": "", "name": "Brazey Ennevans", "coord": {"lat": "47.126441", "lon": "5.224557"}, "id": "stop_area:G21:SA:gen03754"}, {"comment": "", "name": "St Usage Transco", "coord": {"lat": "47.108418", "lon": "5.262044"}, "id": "stop_area:G21:SA:gen04337"}, {"comment": "", "name": "Esbarres Place", "coord": {"lat": "47.094839", "lon": "5.216208"}, "id": "stop_area:G21:SA:gen02455"}, {"comment": "", "name": "St Jean L Pont", "coord": {"lat": "47.101428", "lon": "5.263133"}, "id": "stop_area:G21:SA:gen04333"}, {"comment": "", "name": "Losne Place", "coord": {"lat": "47.097791", "lon": "5.263164"}, "id": "stop_area:G21:SA:gen02636"}, {"comment": "", "name": "Longecourt anc. ecol", "coord": {"lat": "47.196812", "lon": "5.15128"}, "id": "stop_area:G21:SA:gen02623"}, {"comment": "", "name": "Fenay", "coord": {"lat": "47.233828", "lon": "5.061114"}, "id": "stop_area:G21:SA:gen03516"}, {"comment": "", "name": "La Pringolle", "coord": {"lat": "47.232722", "lon": "5.061664"}, "id": "stop_area:CGD:SA:975"}, {"comment": "", "name": "FENAY", "coord": {"lat": "47.232727", "lon": "5.063778"}, "id": "stop_area:CGD:SA:897"}, {"comment": "", "name": "Saulon la Rue", "coord": {"lat": "47.221004", "lon": "5.063858"}, "id": "stop_area:G21:SA:gen04307"}, {"comment": "", "name": "Saulon Chap eglise", "coord": {"lat": "47.215331", "lon": "5.087922"}, "id": "stop_area:G21:SA:gen05495"}, {"comment": "", "name": "Noiron s  Gevrey", "coord": {"lat": "47.193626", "lon": "5.080445"}, "id": "stop_area:G21:SA:gen04109"}, {"comment": "", "name": "Barges Transco", "coord": {"lat": "47.2123", "lon": "5.060803"}, "id": "stop_area:G21:SA:gen03860"}, {"comment": "", "name": "Broindon Transco", "coord": {"lat": "47.197089", "lon": "5.043175"}, "id": "stop_area:G21:SA:gen03885"}, {"comment": "", "name": "Epernay s  Gevrey", "coord": {"lat": "47.180611", "lon": "5.034122"}, "id": "stop_area:G21:SA:gen03957"}, {"comment": "", "name": "Savouges", "coord": {"lat": "47.183246", "lon": "5.061223"}, "id": "stop_area:G21:SA:gen05494"}, {"comment": "", "name": "Corcelles Citeaux", "coord": {"lat": "47.170813", "lon": "5.079925"}, "id": "stop_area:G21:SA:gen03925"}, {"comment": "", "name": "La Forgeotte", "coord": {"lat": "47.14864", "lon": "5.093194"}, "id": "stop_area:G21:SA:gen03526"}, {"comment": "", "name": "Abbaye de Citeaux", "coord": {"lat": "47.131566", "lon": "5.092965"}, "id": "stop_area:G21:SA:gen03620"}, {"comment": "", "name": "Bonnencontre Rue D A", "coord": {"lat": "47.089109", "lon": "5.141379"}, "id": "stop_area:G21:SA:gen03747"}, {"comment": "", "name": "Bonnencontre Place", "coord": {"lat": "47.08338", "lon": "5.14688"}, "id": "stop_area:G21:SA:gen03748"}, {"comment": "", "name": "Broin Mairie", "coord": {"lat": "47.080012", "lon": "5.106801"}, "id": "stop_area:G21:SA:gen01953"}, {"comment": "", "name": "Auvillars s  Saone", "coord": {"lat": "47.065642", "lon": "5.097056"}, "id": "stop_area:G21:SA:gen05493"}, {"comment": "", "name": "Glanon Station Eau", "coord": {"lat": "47.038689", "lon": "5.102476"}, "id": "stop_area:G21:SA:gen02283"}, {"comment": "", "name": "Pouilly Maroc", "coord": {"lat": "47.020661", "lon": "5.11338"}, "id": "stop_area:G21:SA:gen03817"}, {"comment": "", "name": "Pouilly Centre", "coord": {"lat": "47.016966", "lon": "5.120839"}, "id": "stop_area:G21:SA:gen03816"}, {"comment": "", "name": "gare de Seurre", "coord": {"lat": "46.99645", "lon": "5.151248"}, "id": "stop_area:SCF:SA:SAOCE87713677"}, {"comment": "", "name": "Seurre Cours Verdun", "coord": {"lat": "46.997295", "lon": "5.14802"}, "id": "stop_area:G21:SA:gen03608"}, {"comment": "", "name": "Seurre Champ Foire", "coord": {"lat": "47.00139", "lon": "5.147797"}, "id": "stop_area:G21:SA:gen03606"}, {"comment": "", "name": "Monge", "coord": {"lat": "47.317525", "lon": "5.031306"}, "id": "stop_area:CGD:SA:1038"}, {"comment": "", "name": "Manutention", "coord": {"lat": "47.316907", "lon": "5.033675"}, "id": "stop_area:CGD:SA:1077"}, {"comment": "", "name": "Rolin", "coord": {"lat": "47.315923", "lon": "5.027233"}, "id": "stop_area:CGD:SA:1141"}, {"comment": "", "name": "Berbisey", "coord": {"lat": "47.317593", "lon": "5.034345"}, "id": "stop_area:CGD:SA:1281"}, {"comment": "", "name": "H\u00f4pital", "coord": {"lat": "47.318431", "lon": "5.029695"}, "id": "stop_area:CGD:SA:947"}, {"comment": "", "name": "Faubourg Raines", "coord": {"lat": "47.317853", "lon": "5.027052"}, "id": "stop_area:CGD:SA:904"}, {"comment": "", "name": "Suquet", "coord": {"lat": "47.315966", "lon": "5.03329"}, "id": "stop_area:CGD:SA:1199"}, {"comment": "", "name": "Petit-c\u00eeteaux", "coord": {"lat": "47.31521", "lon": "5.034053"}, "id": "stop_area:CGD:SA:1090"}, {"comment": "", "name": "1er Mai", "coord": {"lat": "47.314686", "lon": "5.028745"}, "id": "stop_area:CGD:SA:698"}, {"comment": "", "name": "1er Mai Foyer", "coord": {"lat": "47.314663", "lon": "5.031464"}, "id": "stop_area:CGD:SA:699"}, {"comment": "", "name": "Bourroches", "coord": {"lat": "47.305165", "lon": "5.023158"}, "id": "stop_area:CGD:SA:765"}, {"comment": "", "name": "St-Jacques", "coord": {"lat": "47.306588", "lon": "5.020696"}, "id": "stop_area:CGD:SA:1186"}, {"comment": "", "name": "Carraz  Clinique", "coord": {"lat": "0.0", "lon": "0.0"}, "id": "stop_area:G21:SA:gen06908"}, {"comment": "", "name": "Chenove RD974", "coord": {"lat": "0.0", "lon": "0.0"}, "id": "stop_area:G21:SA:gen05517"}, {"comment": "", "name": "Langevin", "coord": {"lat": "47.28415", "lon": "5.010191"}, "id": "stop_area:CGD:SA:977"}, {"comment": "", "name": "Bicentenaire", "coord": {"lat": "47.285259", "lon": "5.005664"}, "id": "stop_area:CGD:SA:748"}, {"comment": "", "name": "Curie", "coord": {"lat": "47.286318", "lon": "5.003825"}, "id": "stop_area:CGD:SA:859"}, {"comment": "", "name": "Foussets", "coord": {"lat": "47.288617", "lon": "5.006016"}, "id": "stop_area:CGD:SA:910"}, {"comment": "", "name": "Chenove rueLongvIc", "coord": {"lat": "47.291077", "lon": "5.008396"}, "id": "stop_area:G21:SA:gen03784"}, {"comment": "", "name": "Thibaut", "coord": {"lat": "47.293495", "lon": "5.009316"}, "id": "stop_area:CGD:SA:1207"},