# Retrieved from http://navitia2-ws.ctp.dev.canaltp.fr/v1/coverage/transilien/stop_areas?count=10000

{"stop_areas": [{"comment": "", "name": "Jean-Jacques ROUSSEAU", "coord": {"lat": "48.743411", "lon": "2.402955"}, "administrative_regions": [{"id": "admin:94054", "level": 8, "name": "Orly", "coord": {"lat": "48.74298054", "lon": "2.401305224"}, "zip_code": "94310"}], "id": "stop_area:DUA:SA:4:57"}, {"comment": "", "name": "Fer \u00e0 Cheval", "coord": {"lat": "48.74469", "lon": "2.407157"}, "administrative_regions": [{"id": "admin:94054", "level": 8, "name": "Orly", "coord": {"lat": "48.74298054", "lon": "2.401305224"}, "zip_code": "94310"}], "id": "stop_area:DUA:SA:8749573"}, {"comment": "", "name": "La Victoire", "coord": {"lat": "48.746519", "lon": "2.406323"}, "administrative_regions": [{"id": "admin:94054", "level": 8, "name": "Orly", "coord": {"lat": "48.74298054", "lon": "2.401305224"}, "zip_code": "94310"}], "id": "stop_area:DUA:SA:4:55"}, {"comment": "", "name": "Paul Lafargue", "coord": {"lat": "48.745169", "lon": "2.400817"}, "administrative_regions": [{"id": "admin:94054", "level": 8, "name": "Orly", "coord": {"lat": "48.74298054", "lon": "2.401305224"}, "zip_code": "94310"}], "id": "stop_area:DUA:SA:4:54"}, {"comment": "", "name": "La Source", "coord": {"lat": "48.746868", "lon": "2.400493"}, "administrative_regions": [{"id": "admin:94054", "level": 8, "name": "Orly", "coord": {"lat": "48.74298054", "lon": "2.401305224"}, "zip_code": "94310"}], "id": "stop_area:DUA:SA:4:53"}, {"comment": "", "name": "Ecole Noyer Grenot", "coord": {"lat": "48.748822", "lon": "2.403363"}, "administrative_regions": [{"id": "admin:94054", "level": 8, "name": "Orly", "coord": {"lat": "48.74298054", "lon": "2.401305224"}, "zip_code": "94310"}], "id": "stop_area:DUA:SA:4:52"}, {"comment": "", "name": "Jean Jaur\u00e8s", "coord": {"lat": "48.75029", "lon": "2.406308"}, "administrative_regions": [{"id": "admin:94054", "level": 8, "name": "Orly", "coord": {"lat": "48.74298054", "lon": "2.401305224"}, "zip_code": "94310"}], "id": "stop_area:DUA:SA:4:51"}, {"comment": "", "name": "Les Tilleuls", "coord": {"lat": "48.752348", "lon": "2.405781"}, "administrative_regions": [{"id": "admin:94022", "level": 8, "name": "Choisy-le-Roi", "coord": {"lat": "48.76680632", "lon": "2.414396138"}, "zip_code": "94600"}], "id": "stop_area:DUA:SA:4:124"}, {"comment": "", "name": "CHOISY LE ROI", "coord": {"lat": "48.765177", "lon": "2.410013"}, "administrative_regions": [{"id": "admin:94022", "level": 8, "name": "Choisy-le-Roi", "coord": {"lat": "48.76680632", "lon": "2.414396138"}, "zip_code": "94600"}], "id": "stop_area:DUA:SA:8754528"}, {"comment": "", "name": "Les Tilleuls", "coord": {"lat": "48.752741", "lon": "2.405645"}, "administrative_regions": [{"id": "admin:94073", "level": 8, "name": "Thiais", "coord": {"lat": "48.76577965", "lon": "2.392136794"}, "zip_code": "94320"}], "id": "stop_area:DUA:SA:8749574"}, {"comment": "", "name": "PONT DE RUNGIS - A\u00e9roport d'Orly", "coord": {"lat": "48.747863", "lon": "2.371162"}, "administrative_regions": [{"id": "admin:94073", "level": 8, "name": "Thiais", "coord": {"lat": "48.76577965", "lon": "2.392136794"}, "zip_code": "94320"}], "id": "stop_area:DUA:SA:8754619"}, {"comment": "", "name": "Gare de Pont de Rungis", "coord": {"lat": "48.746177", "lon": "2.374349"}, "administrative_regions": [{"id": "admin:94054", "level": 8, "name": "Orly", "coord": {"lat": "48.74298054", "lon": "2.401305224"}, "zip_code": "94310"}], "id": "stop_area:DUA:SA:59:4377756"}, {"comment": "", "name": "SPINOZA", "coord": {"lat": "48.755209", "lon": "2.404993"}, "administrative_regions": [{"id": "admin:94073", "level": 8, "name": "Thiais", "coord": {"lat": "48.76577965", "lon": "2.392136794"}, "zip_code": "94320"}, {"id": "admin:94022", "level": 8, "name": "Choisy-le-Roi", "coord": {"lat": "48.76680632", "lon": "2.414396138"}, "zip_code": "94600"}], "id": "stop_area:DUA:SA:4:78"}, {"comment": "", "name": "Lyc\u00e9e Guillaume  Apollinaire", "coord": {"lat": "48.757825", "lon": "2.403857"}, "administrative_regions": [{"id": "admin:94073", "level": 8, "name": "Thiais", "coord": {"lat": "48.76577965", "lon": "2.392136794"}, "zip_code": "94320"}], "id": "stop_area:DUA:SA:4:178"}, {"comment": "", "name": "GUY MOQUET", "coord": {"lat": "48.760039", "lon": "2.403548"}, "administrative_regions": [{"id": "admin:94022", "level": 8, "name": "Choisy-le-Roi", "coord": {"lat": "48.76680632", "lon": "2.414396138"}, "zip_code": "94600"}, {"id": "admin:94073", "level": 8, "name": "Thiais", "coord": {"lat": "48.76577965", "lon": "2.392136794"}, "zip_code": "94320"}], "id": "stop_area:DUA:SA:4:126"}, {"comment": "", "name": "GENERAL LECLERC", "coord": {"lat": "48.762113", "lon": "2.406351"}, "administrative_regions": [{"id": "admin:94022", "level": 8, "name": "Choisy-le-Roi", "coord": {"lat": "48.76680632", "lon": "2.414396138"}, "zip_code": "94600"}], "id": "stop_area:DUA:SA:4:46"}, {"comment": "", "name": "Rouget de Lisle", "coord": {"lat": "48.764528", "lon": "2.405436"}, "administrative_regions": [{"id": "admin:94022", "level": 8, "name": "Choisy-le-Roi", "coord": {"lat": "48.76680632", "lon": "2.414396138"}, "zip_code": "94600"}], "id": "stop_area:DUA:SA:4:71"}, {"comment": "", "name": "VILLENEUVE SAINT-GEORGES", "coord": {"lat": "48.73012", "lon": "2.44691"}, "administrative_regions": [{"id": "admin:94078", "level": 8, "name": "Villeneuve-Saint-Georges", "coord": {"lat": "48.72902338", "lon": "2.447257373"}, "zip_code": "94190"}], "id": "stop_area:DUA:SA:8768182"}, {"comment": "", "name": "VILLENEUVE TRIAGE", "coord": {"lat": "48.745574", "lon": "2.43806"}, "administrative_regions": [{"id": "admin:94078", "level": 8, "name": "Villeneuve-Saint-Georges", "coord": {"lat": "48.72902338", "lon": "2.447257373"}, "zip_code": "94190"}], "id": "stop_area:DUA:SA:8768180"}, {"comment": "", "name": "Beauregard", "coord": {"lat": "48.72774", "lon": "2.449999"}, "administrative_regions": [{"id": "admin:94078", "level": 8, "name": "Villeneuve-Saint-Georges", "coord": {"lat": "48.72902338", "lon": "2.447257373"}, "zip_code": "94190"}], "id": "stop_area:DUA:SA:32:45292"}, {"comment": "", "name": "Henri Janin", "coord": {"lat": "48.73307", "lon": "2.450078"}, "administrative_regions": [{"id": "admin:94078", "level": 8, "name": "Villeneuve-Saint-Georges", "coord": {"lat": "48.72902338", "lon": "2.447257373"}, "zip_code": "94190"}], "id": "stop_area:DUA:SA:32:45330"}, {"comment": "", "name": "WEDDINGEN", "coord": {"lat": "48.728498", "lon": "2.4314"}, "administrative_regions": [{"id": "admin:94077", "level": 8, "name": "Villeneuve-le-Roi", "coord": {"lat": "48.73489476", "lon": "2.418259477"}, "zip_code": "94290"}], "id": "stop_area:DUA:SA:4:67"}, {"comment": "", "name": "BROSSOLETTE GYMNASE", "coord": {"lat": "48.728728", "lon": "2.424159"}, "administrative_regions": [{"id": "admin:94001", "level": 8, "name": "Ablon-sur-Seine", "coord": {"lat": "48.7216333", "lon": "2.418333641"}, "zip_code": "94480"}], "id": "stop_area:DUA:SA:4:186"}, {"comment": "", "name": "REINE ASTRID", "coord": {"lat": "48.727753", "lon": "2.418607"}, "administrative_regions": [{"id": "admin:94001", "level": 8, "name": "Ablon-sur-Seine", "coord": {"lat": "48.7216333", "lon": "2.418333641"}, "zip_code": "94480"}], "id": "stop_area:DUA:SA:4:63"}, {"comment": "", "name": "PLACE DE LA REPUBLIQUE", "coord": {"lat": "48.731348", "lon": "2.41845"}, "administrative_regions": [{"id": "admin:94077", "level": 8, "name": "Villeneuve-le-Roi", "coord": {"lat": "48.73489476", "lon": "2.418259477"}, "zip_code": "94290"}], "id": "stop_area:DUA:SA:4:62"}, {"comment": "", "name": "VILLENEUVE LE ROI", "coord": {"lat": "48.739787", "lon": "2.425794"}, "administrative_regions": [{"id": "admin:94077", "level": 8, "name": "Villeneuve-le-Roi", "coord": {"lat": "48.73489476", "lon": "2.418259477"}, "zip_code": "94290"}], "id": "stop_area:DUA:SA:8754527"}, {"comment": "", "name": "PLACE GOUNOT", "coord": {"lat": "48.73715", "lon": "2.411291"}, "administrative_regions": [{"id": "admin:94077", "level": 8, "name": "Villeneuve-le-Roi", "coord": {"lat": "48.73489476", "lon": "2.418259477"}, "zip_code": "94290"}], "id": "stop_area:DUA:SA:8798336"}, {"comment": "", "name": "PIERREFITTE", "coord": {"lat": "48.736881", "lon": "2.429038"}, "administrative_regions": [{"id": "admin:94077", "level": 8, "name": "Villeneuve-le-Roi", "coord": {"lat": "48.73489476", "lon": "2.418259477"}, "zip_code": "94290"}], "id": "stop_area:DUA:SA:4:143"}, {"comment": "", "name": "MORILLONS", "coord": {"lat": "48.731742", "lon": "2.432025"}, "administrative_regions": [{"id": "admin:94077", "level": 8, "name": "Villeneuve-le-Roi", "coord": {"lat": "48.73489476", "lon": "2.418259477"}, "zip_code": "94290"}], "id": "stop_area:DUA:SA:4:141"}, {"comment": "", "name": "HOTELS", "coord": {"lat": "48.728661", "lon": "2.435049"}, "administrative_regions": [{"id": "admin:94077", "level": 8, "name": "Villeneuve-le-Roi", "coord": {"lat": "48.73489476", "lon": "2.418259477"}, "zip_code": "94290"}], "id": "stop_area:DUA:SA:4:139"}, {"comment": "", "name": "MARINIERS", "coord": {"lat": "48.728205", "lon": "2.437881"}, "administrative_regions": [{"id": "admin:94077", "level": 8, "name": "Villeneuve-le-Roi", "coord": {"lat": "48.73489476", "lon": "2.418259477"}, "zip_code": "94290"}], "id": "stop_area:DUA:SA:4:137"}, {"comment": "", "name": "RAOUL DELATTRE", "coord": {"lat": "48.727417", "lon": "2.43758"}, "administrative_regions": [{"id": "admin:94077", "level": 8, "name": "Villeneuve-le-Roi", "coord": {"lat": "48.73489476", "lon": "2.418259477"}, "zip_code": "94290"}], "id": "stop_area:DUA:SA:4:182"}, {"comment": "", "name": "EDF", "coord": {"lat": "48.730046", "lon": "2.439345"}, "administrative_regions": [{"id": "admin:94077", "level": 8, "name": "Villeneuve-le-Roi", "coord": {"lat": "48.73489476", "lon": "2.418259477"}, "zip_code": "94290"}], "id": "stop_area:DUA:SA:4:135"}, {"comment": "", "name": "HONORE OURSEL", "coord": {"lat": "48.728852", "lon": "2.44314"}, "administrative_regions": [{"id": "admin:94077", "level": 8, "name": "Villeneuve-le-Roi", "coord": {"lat": "48.73489476", "lon": "2.418259477"}, "zip_code": "94290"}], "id": "stop_area:DUA:SA:4:189"}, {"comment": "", "name": "ECOLES", "coord": {"lat": "48.731767", "lon": "2.440544"}, "administrative_regions": [{"id": "admin:94077", "level": 8, "name": "Villeneuve-le-Roi", "coord": {"lat": "48.73489476", "lon": "2.418259477"}, "zip_code": "94290"}], "id": "stop_area:DUA:SA:4:133"}, {"comment": "", "name": "PLAINE BASSE", "coord": {"lat": "48.735127", "lon": "2.441536"}, "administrative_regions": [{"id": "admin:94077", "level": 8, "name": "Villeneuve-le-Roi", "coord": {"lat": "48.73489476", "lon": "2.418259477"}, "zip_code": "94290"}], "id": "stop_area:DUA:SA:4:131"}, {"comment": "", "name": "LA FRESNAIE", "coord": {"lat": "48.737622", "lon": "2.441052"}, "administrative_regions": [{"id": "admin:94077", "level": 8, "name": "Villeneuve-le-Roi", "coord": {"lat": "48.73489476", "lon": "2.418259477"}, "zip_code": "94290"}], "id": "stop_area:DUA:SA:4:130"}, {"comment": "", "name": "PARC EN SEINE", "coord": {"lat": "48.742519", "lon": "2.432656"}, "administrative_regions": [{"id": "admin:94077", "level": 8, "name": "Villeneuve-le-Roi", "coord": {"lat": "48.73489476", "lon": "2.418259477"}, "zip_code": "94290"}], "id": "stop_area:DUA:SA:4:191"}, {"comment": "", "name": "LOUIS JARRIGE", "coord": {"lat": "48.73985", "lon": "2.420019"}, "administrative_regions": [{"id": "admin:94077", "level": 8, "name": "Villeneuve-le-Roi", "coord": {"lat": "48.73489476", "lon": "2.418259477"}, "zip_code": "94290"}], "id": "stop_area:DUA:SA:4:150"}, {"comment": "", "name": "ECOLE PAINLEVE", "coord": {"lat": "48.738371", "lon": "2.413902"}, "administrative_regions": [{"id": "admin:94077", "level": 8, "name": "Villeneuve-le-Roi", "coord": {"lat": "48.73489476", "lon": "2.418259477"}, "zip_code": "94290"}], "id": "stop_area:DUA:SA:4:151"}, {"comment": "", "name": "RAYMOND ML", "coord": {"lat": "48.736503", "lon": "2.411249"}, "administrative_regions": [{"id": "admin:94077", "level": 8, "name": "Villeneuve-le-Roi", "coord": {"lat": "48.73489476", "lon": "2.418259477"}, "zip_code": "94290"}], "id": "stop_area:DUA:SA:4:152"}, {"comment": "", "name": "PAUL PAINLEVE", "coord": {"lat": "48.737047", "lon": "2.411576"}, "administrative_regions": [{"id": "admin:94077", "level": 8, "name": "Villeneuve-le-Roi", "coord": {"lat": "48.73489476", "lon": "2.418259477"}, "zip_code": "94290"}], "id": "stop_area:DUA:SA:4:60"}, {"comment": "", "name": "HENRI DUNANT", "coord": {"lat": "48.734588", "lon": "2.411573"}, "administrative_regions": [{"id": "admin:94077", "level": 8, "name": "Villeneuve-le-Roi", "coord": {"lat": "48.73489476", "lon": "2.418259477"}, "zip_code": "94290"}], "id": "stop_area:DUA:SA:4:153"}, {"comment": "", "name": "PLACE MOLIERE", "coord": {"lat": "48.73234", "lon": "2.414097"}, "administrative_regions": [{"id": "admin:94077", "level": 8, "name": "Villeneuve-le-Roi", "coord": {"lat": "48.73489476", "lon": "2.418259477"}, "zip_code": "94290"}], "id": "stop_area:DUA:SA:4:154"}, {"comment": "", "name": "SERGE VOYER", "coord": {"lat": "48.732373", "lon": "2.417806"}, "administrative_regions": [{"id": "admin:94077", "level": 8, "name": "Villeneuve-le-Roi", "coord": {"lat": "48.73489476", "lon": "2.418259477"}, "zip_code": "94290"}], "id": "stop_area:DUA:SA:4:155"}, {"comment": "", "name": "VICTOR HUGO", "coord": {"lat": "48.732559", "lon": "2.421964"}, "administrative_regions": [{"id": "admin:94077", "level": 8, "name": "Villeneuve-le-Roi", "coord": {"lat": "48.73489476", "lon": "2.418259477"}, "zip_code": "94290"}], "id": "stop_area:DUA:SA:4:156"}, {"comment": "", "name": "PLACE JEANNE D'ARC", "coord": {"lat": "48.732759", "lon": "2.424601"}, "administrative_regions": [{"id": "admin:94077", "level": 8, "name": "Villeneuve-le-Roi", "coord": {"lat": "48.73489476", "lon": "2.418259477"}, "zip_code": "94290"}], "id": "stop_area:DUA:SA:4:157"}, {"comment": "", "name": "G\u00e9n\u00e9ral De Gaulle", "coord": {"lat": "48.735469", "lon": "2.424361"}, "administrative_regions": [{"id": "admin:94077", "level": 8, "name": "Villeneuve-le-Roi", "coord": {"lat": "48.73489476", "lon": "2.418259477"}, "zip_code": "94290"}], "id": "stop_area:DUA:SA:4:158"}, {"comment": "", "name": "FOYER JEAN ROSTAND", "coord": {"lat": "48.73595", "lon": "2.403938"}, "administrative_regions": [{"id": "admin:94077", "level": 8, "name": "Villeneuve-le-Roi", "coord": {"lat": "48.73489476", "lon": "2.418259477"}, "zip_code": "94290"}], "id": "stop_area:DUA:SA:4:159"}, {"comment": "", "name": "PIERRE CURIE", "coord": {"lat": "48.732483", "lon": "2.399422"}, "administrative_regions": [{"id": "admin:94077", "level": 8, "name": "Villeneuve-le-Roi", "coord": {"lat": "48.73489476", "lon": "2.418259477"}, "zip_code": "94290"}], "id": "stop_area:DUA:SA:4:171"}, {"comment": "", "name": "MAIRIE", "coord": {"lat": "48.732595", "lon": "2.408472"}, "administrative_regions": [{"id": "admin:94077", "level": 8, "name": "Villeneuve-le-Roi", "coord": {"lat": "48.73489476", "lon": "2.418259477"}, "zip_code": "94290"}], "id": "stop_area:DUA:SA:4:172"}, {"comment": "", "name": "RUE FOCH", "coord": {"lat": "48.729113", "lon": "2.409467"}, "administrative_regions": [{"id": "admin:94077", "level": 8, "name": "Villeneuve-le-Roi", "coord": {"lat": "48.73489476", "lon": "2.418259477"}, "zip_code": "94290"}], "id": "stop_area:DUA:SA:4:193"}, {"comment": "", "name": "LES PIERRIERES", "coord": {"lat": "48.726329", "lon": "2.410719"}, "administrative_regions": [{"id": "admin:94077", "level": 8, "name": "Villeneuve-le-Roi", "coord": {"lat": "48.73489476", "lon": "2.418259477"}, "zip_code": "94290"}], "id": "stop_area:DUA:SA:4:174"}, {"comment": "", "name": "ERNEST RENAN", "coord": {"lat": "48.730308", "lon": "2.413754"}, "administrative_regions": [{"id": "admin:94077", "level": 8, "name": "Villeneuve-le-Roi", "coord": {"lat": "48.73489476", "lon": "2.418259477"}, "zip_code": "94290"}], "id": "stop_area:DUA:SA:4:175"}, {"comment": "", "name": "PLACE AMEDEE SOUPAULT", "coord": {"lat": "48.734593", "lon": "2.417946"}, "administrative_regions": [{"id": "admin:94077", "level": 8, "name": "Villeneuve-le-Roi", "coord": {"lat": "48.73489476", "lon": "2.418259477"}, "zip_code": "94290"}], "id": "stop_area:DUA:SA:4:181"}, {"comment": "", "name": "Lyc\u00e9e Georges Brassens", "coord": {"lat": "48.72984", "lon": "2.427986"}, "administrative_regions": [{"id": "admin:94077", "level": 8, "name": "Villeneuve-le-Roi", "coord": {"lat": "48.73489476", "lon": "2.418259477"}, "zip_code": "94290"}], "id": "stop_area:DUA:SA:4:66"}, {"comment": "", "name": "Place Gambetta", "coord": {"lat": "48.726855", "lon": "2.429441"}, "administrative_regions": [{"id": "admin:94001", "level": 8, "name": "Ablon-sur-Seine", "coord": {"lat": "48.7216333", "lon": "2.418333641"}, "zip_code": "94480"}], "id": "stop_area:DUA:SA:4:13"}, {"comment": "", "name": "ABLON", "coord": {"lat": "48.725069", "lon": "2.419203"}, "administrative_regions": [{"id": "admin:94001", "level": 8, "name": "Ablon-sur-Seine", "coord": {"lat": "48.7216333", "lon": "2.418333641"}, "zip_code": "94480"}], "id": "stop_area:DUA:SA:8754526"}, {"comment": "", "name": "Val d'Ablon", "coord": {"lat": "48.727809", "lon": "2.43341"}, "administrative_regions": [{"id": "admin:94077", "level": 8, "name": "Villeneuve-le-Roi", "coord": {"lat": "48.73489476", "lon": "2.418259477"}, "zip_code": "94290"}], "id": "stop_area:DUA:SA:4:12"}, {"comment": "", "name": "POINCARE", "coord": {"lat": "48.733782", "lon": "2.421545"}, "administrative_regions": [{"id": "admin:94077", "level": 8, "name": "Villeneuve-le-Roi", "coord": {"lat": "48.73489476", "lon": "2.418259477"}, "zip_code": "94290"}], "id": "stop_area:DUA:SA:4:165"}, {"comment": "", "name": "MARCHE", "coord": {"lat": "48.73664", "lon": "2.421563"}, "administrative_regions": [{"id": "admin:94077", "level": 8, "name": "Villeneuve-le-Roi", "coord": {"lat": "48.73489476", "lon": "2.418259477"}, "zip_code": "94290"}], "id": "stop_area:DUA:SA:4:166"}, {"comment": "", "name": "ABBE GREGOIRE", "coord": {"lat": "48.73969", "lon": "2.417424"}, "administrative_regions": [{"id": "admin:94077", "level": 8, "name": "Villeneuve-le-Roi", "coord": {"lat": "48.73489476", "lon": "2.418259477"}, "zip_code": "94290"}], "id": "stop_area:DUA:SA:4:167"}, {"comment": "", "name": "NIKOS BELLOYANIS", "coord": {"lat": "48.742368", "lon": "2.417727"}, "administrative_regions": [{"id": "admin:94077", "level": 8, "name": "Villeneuve-le-Roi", "coord": {"lat": "48.73489476", "lon": "2.418259477"}, "zip_code": "94290"}], "id": "stop_area:DUA:SA:4:168"}, {"comment": "", "name": "GALLIENI", "coord": {"lat": "48.742059", "lon": "2.422347"}, "administrative_regions": [{"id": "admin:94077", "level": 8, "name": "Villeneuve-le-Roi", "coord": {"lat": "48.73489476", "lon": "2.418259477"}, "zip_code": "94290"}], "id": "stop_area:DUA:SA:4:169"}, {"comment": "", "name": "SAINT MARTIN", "coord": {"lat": "48.739229", "lon": "2.407217"}, "administrative_regions": [{"id": "admin:94077", "level": 8, "name": "Villeneuve-le-Roi", "coord": {"lat": "48.73489476", "lon": "2.418259477"}, "zip_code": "94290"}], "id": "stop_area:DUA:SA:4:180"}, {"comment": "", "name": "G. DU VAIR", "coord": {"lat": "48.737172", "lon": "2.405733"}, "administrative_regions": [{"id": "admin:94077", "level": 8, "name": "Villeneuve-le-Roi", "coord": {"lat": "48.73489476", "lon": "2.418259477"}, "zip_code": "94290"}], "id": "stop_area:DUA:SA:4:170"}, {"comment": "", "name": "ORLY VILLE", "coord": {"lat": "48.742537", "lon": "2.401476"}, "administrative_regions": [{"id": "admin:94054", "level": 8, "name": "Orly", "coord": {"lat": "48.74298054", "lon": "2.401305224"}, "zip_code": "94310"}], "id": "stop_area:DUA:SA:8754620"}, {"comment": "", "name": "LES SAULES", "coord": {"lat": "48.746116", "lon": "2.416946"}, "administrative_regions": [{"id": "admin:94054", "level": 8, "name": "Orly", "coord": {"lat": "48.74298054", "lon": "2.401305224"}, "zip_code": "94310"}], "id": "stop_area:DUA:SA:8754622"}, {"comment": "", "name": "A\u00e9roport Orly Ouest", "coord": {"lat": "48.728427", "lon": "2.359975"}, "administrative_regions": [{"id": "admin:91479", "level": 8, "name": "Paray-Vieille-Poste", "coord": {"lat": "48.71268674", "lon": "2.363006522"}, "zip_code": "91550"}], "id": "stop_area:DUA:SA:8707086"}, {"comment": "", "name": "A\u00e9roport Orly Sud", "coord": {"lat": "48.729012", "lon": "2.369208"}, "administrative_regions": [{"id": "admin:94054", "level": 8, "name": "Orly", "coord": {"lat": "48.74298054", "lon": "2.401305224"}, "zip_code": "94310"}, {"id": "admin:91479", "level": 8, "name": "Paray-Vieille-Poste", "coord": {"lat": "48.71268674", "lon": "2.363006522"}, "zip_code": "91550"}], "id": "stop_area:DUA:SA:59841"}, {"comment": "", "name": "A\u00e9roport Orly Sud", "coord": {"lat": "48.72852", "lon": "2.368853"}, "administrative_regions": [{"id": "admin:91479", "level": 8, "name": "Paray-Vieille-Poste", "coord": {"lat": "48.71268674", "lon": "2.363006522"}, "zip_code": "91550"}], "id": "stop_area:DUA:SA:56:11846"}, {"comment": "", "name": "COEUR D'ORLY", "coord": {"lat": "48.733747", "lon": "2.370719"}, "administrative_regions": [{"id": "admin:94054", "level": 8, "name": "Orly", "coord": {"lat": "48.74298054", "lon": "2.401305224"}, "zip_code": "94310"}, {"id": "admin:91479", "level": 8, "name": "Paray-Vieille-Poste", "coord": {"lat": "48.71268674", "lon": "2.363006522"}, "zip_code": "91550"}], "id": "stop_area:DUA:SA:59839"}, {"comment": "", "name": "COEUR D'ORLY", "coord": {"lat": "48.735479", "lon": "2.370646"}, "administrative_regions": [{"id": "admin:94054", "level": 8, "name": "Orly", "coord": {"lat": "48.74298054", "lon": "2.401305224"}, "zip_code": "94310"}], "id": "stop_area:DUA:SA:59:4677733"}, {"comment": "", "name": "Val des Dames", "coord": {"lat": "48.740564", "lon": "2.752055"}, "administrative_regions": [{"id": "admin:77470", "level": 8, "name": "Tournan-en-Brie", "coord": {"lat": "48.738925", "lon": "2.768264027"}, "zip_code": "77220"}], "id": "stop_area:DUA:SA:48:5367"}, {"comment": "", "name": "Champagne", "coord": {"lat": "48.739061", "lon": "2.744915"}, "administrative_regions": [{"id": "admin:77215", "level": 8, "name": "Gretz-Armainvilliers", "coord": {"lat": "48.73980428", "lon": "2.738930903"}, "zip_code": "77220"}], "id": "stop_area:DUA:SA:48:5181"}, {"comment": "", "name": "TORCY", "coord": {"lat": "48.839129", "lon": "2.65603"}, "administrative_regions": [{"id": "admin:77468", "level": 8, "name": "Torcy", "coord": {"lat": "48.84978741", "lon": "2.652891636"}, "zip_code": "77200"}], "id": "stop_area:DUA:SA:8775837"}, {"comment": "", "name": "Coll\u00e8ge Jean Monnet", "coord": {"lat": "48.842918", "lon": "2.646784"}, "administrative_regions": [{"id": "admin:77468", "level": 8, "name": "Torcy", "coord": {"lat": "48.84978741", "lon": "2.652891636"}, "zip_code": "77200"}], "id": "stop_area:DUA:SA:8798553"}, {"comment": "", "name": "Baden Powell", "coord": {"lat": "48.746132", "lon": "2.756252"}, "administrative_regions": [{"id": "admin:77470", "level": 8, "name": "Tournan-en-Brie", "coord": {"lat": "48.738925", "lon": "2.768264027"}, "zip_code": "77220"}], "id": "stop_area:DUA:SA:48:5591"}, {"comment": "", "name": "Boulevard Hardy", "coord": {"lat": "48.708692", "lon": "2.860814"}, "administrative_regions": [{"id": "admin:77192", "level": 8, "name": "Fontenay-Tr\u00e9signy", "coord": {"lat": "48.70687202", "lon": "2.870189151"}, "zip_code": "77610"}], "id": "stop_area:DUA:SA:48:5151"}, {"comment": "", "name": "Rue Bertheaux", "coord": {"lat": "48.710907", "lon": "2.857356"}, "administrative_regions": [{"id": "admin:77192", "level": 8, "name": "Fontenay-Tr\u00e9signy", "coord": {"lat": "48.70687202", "lon": "2.870189151"}, "zip_code": "77610"}], "id": "stop_area:DUA:SA:48:5153"}, {"comment": "", "name": "Zone Industrielle", "coord": {"lat": "48.73095", "lon": "2.739335"}, "administrative_regions": [{"id": "admin:77215", "level": 8, "name": "Gretz-Armainvilliers", "coord": {"lat": "48.73980428", "lon": "2.738930903"}, "zip_code": "77220"}], "id": "stop_area:DUA:SA:48:5221"}, {"comment": "", "name": "Auteuil", "coord": {"lat": "48.721519", "lon": "2.738651"}, "administrative_regions": [{"id": "admin:77377", "level": 8, "name": "Presles-en-Brie", "coord": {"lat": "48.71567425", "lon": "2.741673256"}, "zip_code": "77220"}], "id": "stop_area:DUA:SA:48:5495"}, {"comment": "", "name": "Place", "coord": {"lat": "48.715874", "lon": "2.74129"}, "administrative_regions": [{"id": "admin:77377", "level": 8, "name": "Presles-en-Brie", "coord": {"lat": "48.71567425", "lon": "2.741673256"}, "zip_code": "77220"}], "id": "stop_area:DUA:SA:48:5511"}, {"comment": "", "name": "Marsange 1", "coord": {"lat": "48.713963", "lon": "2.740181"}, "administrative_regions": [{"id": "admin:77377", "level": 8, "name": "Presles-en-Brie", "coord": {"lat": "48.71567425", "lon": "2.741673256"}, "zip_code": "77220"}], "id": "stop_area:DUA:SA:48:5503"}, {"comment": "", "name": "Marsange 2", "coord": {"lat": "48.714739", "lon": "2.738075"}, "administrative_regions": [{"id": "admin:77377", "level": 8, "name": "Presles-en-Brie", "coord": {"lat": "48.71567425", "lon": "2.741673256"}, "zip_code": "77220"}], "id": "stop_area:DUA:SA:48:5507"}, {"comment": "", "name": "Maurice Andre", "coord": {"lat": "48.710808", "lon": "2.740347"}, "administrative_regions": [{"id": "admin:77377", "level": 8, "name": "Presles-en-Brie", "coord": {"lat": "48.71567425", "lon": "2.741673256"}, "zip_code": "77220"}], "id": "stop_area:DUA:SA:48:7143"}, {"comment": "", "name": "Poste", "coord": {"lat": "48.644518", "lon": "2.836245"}, "administrative_regions": [{"id": "admin:77493", "level": 8, "name": "Verneuil-l'Etang", "coord": {"lat": "48.64428647", "lon": "2.834197751"}, "zip_code": "77390"}], "id": "stop_area:DUA:SA:48:5691"}, {"comment": "", "name": "La Ferme", "coord": {"lat": "48.761898", "lon": "2.664385"}, "administrative_regions": [{"id": "admin:77350", "level": 8, "name": "Ozoir-la-Ferri\u00e8re", "coord": {"lat": "48.76236336", "lon": "2.671737169"}, "zip_code": "77330"}], "id": "stop_area:DUA:SA:48:5397"}, {"comment": "", "name": "Antenne", "coord": {"lat": "48.759522", "lon": "2.667143"}, "administrative_regions": [{"id": "admin:77350", "level": 8, "name": "Ozoir-la-Ferri\u00e8re", "coord": {"lat": "48.76236336", "lon": "2.671737169"}, "zip_code": "77330"}], "id": "stop_area:DUA:SA:48:5341"}, {"comment": "", "name": "Campanules", "coord": {"lat": "48.758977", "lon": "2.670627"}, "administrative_regions": [{"id": "admin:77350", "level": 8, "name": "Ozoir-la-Ferri\u00e8re", "coord": {"lat": "48.76236336", "lon": "2.671737169"}, "zip_code": "77330"}], "id": "stop_area:DUA:SA:48:5357"}, {"comment": "", "name": "Rue de Chevry", "coord": {"lat": "48.759147", "lon": "2.672613"}, "administrative_regions": [{"id": "admin:77350", "level": 8, "name": "Ozoir-la-Ferri\u00e8re", "coord": {"lat": "48.76236336", "lon": "2.671737169"}, "zip_code": "77330"}], "id": "stop_area:DUA:SA:48:5437"}, {"comment": "", "name": "Cam\u00e9lias", "coord": {"lat": "48.758515", "lon": "2.673805"}, "administrative_regions": [{"id": "admin:77350", "level": 8, "name": "Ozoir-la-Ferri\u00e8re", "coord": {"lat": "48.76236336", "lon": "2.671737169"}, "zip_code": "77330"}], "id": "stop_area:DUA:SA:48:5355"}, {"comment": "", "name": "Tulipes", "coord": {"lat": "48.756991", "lon": "2.675454"}, "administrative_regions": [{"id": "admin:77350", "level": 8, "name": "Ozoir-la-Ferri\u00e8re", "coord": {"lat": "48.76236336", "lon": "2.671737169"}, "zip_code": "77330"}], "id": "stop_area:DUA:SA:48:5451"}, {"comment": "", "name": "Plume Vert", "coord": {"lat": "48.75854", "lon": "2.677462"}, "administrative_regions": [{"id": "admin:77350", "level": 8, "name": "Ozoir-la-Ferri\u00e8re", "coord": {"lat": "48.76236336", "lon": "2.671737169"}, "zip_code": "77330"}], "id": "stop_area:DUA:SA:48:5627"}, {"comment": "", "name": "La Ferri\u00e8re", "coord": {"lat": "48.760775", "lon": "2.678544"}, "administrative_regions": [{"id": "admin:77350", "level": 8, "name": "Ozoir-la-Ferri\u00e8re", "coord": {"lat": "48.76236336", "lon": "2.671737169"}, "zip_code": "77330"}], "id": "stop_area:DUA:SA:48:5401"}, {"comment": "", "name": "Danton", "coord": {"lat": "48.760878", "lon": "2.678626"}, "administrative_regions": [{"id": "admin:77350", "level": 8, "name": "Ozoir-la-Ferri\u00e8re", "coord": {"lat": "48.76236336", "lon": "2.671737169"}, "zip_code": "77330"}], "id": "stop_area:DUA:SA:48:5735"}, {"comment": "", "name": "La Br\u00e8che aux Loups", "coord": {"lat": "48.764734", "lon": "2.68029"}, "administrative_regions": [{"id": "admin:77350", "level": 8, "name": "Ozoir-la-Ferri\u00e8re", "coord": {"lat": "48.76236336", "lon": "2.671737169"}, "zip_code": "77330"}], "id": "stop_area:DUA:SA:48:5351"}, {"comment": "", "name": "Zone Industrielle Chevalier", "coord": {"lat": "48.767188", "lon": "2.684997"}, "administrative_regions": [{"id": "admin:77350", "level": 8, "name": "Ozoir-la-Ferri\u00e8re", "coord": {"lat": "48.76236336", "lon": "2.671737169"}, "zip_code": "77330"}], "id": "stop_area:DUA:SA:48:5461"}, {"comment": "", "name": "B\u00e9atrice", "coord": {"lat": "48.763636", "lon": "2.674416"}, "administrative_regions": [{"id": "admin:77350", "level": 8, "name": "Ozoir-la-Ferri\u00e8re", "coord": {"lat": "48.76236336", "lon": "2.671737169"}, "zip_code": "77330"}], "id": "stop_area:DUA:SA:48:5343"}, {"comment": "", "name": "Gendarmerie", "coord": {"lat": "48.776549", "lon": "2.678716"}, "administrative_regions": [{"id": "admin:77350", "level": 8, "name": "Ozoir-la-Ferri\u00e8re", "coord": {"lat": "48.76236336", "lon": "2.671737169"}, "zip_code": "77330"}], "id": "stop_area:DUA:SA:48:5383"}, {"comment": "", "name": "Bois Prieur", "coord": {"lat": "48.776127", "lon": "2.678414"}, "administrative_regions": [{"id": "admin:77350", "level": 8, "name": "Ozoir-la-Ferri\u00e8re", "coord": {"lat": "48.76236336", "lon": "2.671737169"}, "zip_code": "77330"}], "id": "stop_area:DUA:SA:9:955"}, {"comment": "", "name": "Louis Armand", "coord": {"lat": "48.765", "lon": "2.689102"}, "administrative_regions": [{"id": "admin:77350", "level": 8, "name": "Ozoir-la-Ferri\u00e8re", "coord": {"lat": "48.76236336", "lon": "2.671737169"}, "zip_code": "77330"}], "id": "stop_area:DUA:SA:48:5416"}, {"comment": "", "name": "Jean Jaur\u00e8s", "coord": {"lat": "48.769285", "lon": "2.671271"}, "administrative_regions": [{"id": "admin:77350", "level": 8, "name": "Ozoir-la-Ferri\u00e8re", "coord": {"lat": "48.76236336", "lon": "2.671737169"}, "zip_code": "77330"}], "id": "stop_area:DUA:SA:48:5393"}, {"comment": "", "name": "ZAC Poirier", "coord": {"lat": "48.770301", "lon": "2.667939"}, "administrative_regions": [{"id": "admin:77350", "level": 8, "name": "Ozoir-la-Ferri\u00e8re", "coord": {"lat": "48.76236336", "lon": "2.671737169"}, "zip_code": "77330"}], "id": "stop_area:DUA:SA:48:5457"}, {"comment": "", "name": "S\u00e9curit\u00e9 Sociale", "coord": {"lat": "48.773146", "lon": "2.678931"}, "administrative_regions": [{"id": "admin:77350", "level": 8, "name": "Ozoir-la-Ferri\u00e8re", "coord": {"lat": "48.76236336", "lon": "2.671737169"}, "zip_code": "77330"}], "id": "stop_area:DUA:SA:48:5443"}, {"comment": "", "name": "Cognet", "coord": {"lat": "48.770392", "lon": "2.677227"}, "administrative_regions": [{"id": "admin:77350", "level": 8, "name": "Ozoir-la-Ferri\u00e8re", "coord": {"lat": "48.76236336", "lon": "2.671737169"}, "zip_code": "77330"}], "id": "stop_area:DUA:SA:48:5371"}, {"comment": "", "name": "Lavoisier", "coord": {"lat": "48.770345", "lon": "2.681021"}, "administrative_regions": [{"id": "admin:77350", "level": 8, "name": "Ozoir-la-Ferri\u00e8re", "coord": {"lat": "48.76236336", "lon": "2.671737169"}, "zip_code": "77330"}], "id": "stop_area:DUA:SA:48:5403"}, {"comment": "", "name": "Anatole France", "coord": {"lat": "48.771448", "lon": "2.685107"}, "administrative_regions": [{"id": "admin:77350", "level": 8, "name": "Ozoir-la-Ferri\u00e8re", "coord": {"lat": "48.76236336", "lon": "2.671737169"}, "zip_code": "77330"}], "id": "stop_area:DUA:SA:48:5335"}, {"comment": "", "name": "Campus Ste Th\u00e9r\u00e8se Ouest", "coord": {"lat": "48.765311", "lon": "2.665147"}, "administrative_regions": [{"id": "admin:77350", "level": 8, "name": "Ozoir-la-Ferri\u00e8re", "coord": {"lat": "48.76236336", "lon": "2.671737169"}, "zip_code": "77330"}], "id": "stop_area:DUA:SA:48:5980"}, {"comment": "", "name": "Maison des Associations", "coord": {"lat": "48.741294", "lon": "2.841151"}, "administrative_regions": [{"id": "admin:77091", "level": 8, "name": "Les Chapelles-Bourbon", "coord": {"lat": "48.74127641", "lon": "2.840702038"}, "zip_code": "77610"}], "id": "stop_area:DUA:SA:48:5053"}, {"comment": "", "name": "Trois Maisons", "coord": {"lat": "48.77137", "lon": "2.828967"}, "administrative_regions": [{"id": "admin:77336", "level": 8, "name": "Neufmoutiers-en-Brie", "coord": {"lat": "48.76783164", "lon": "2.831259044"}, "zip_code": "77610"}], "id": "stop_area:DUA:SA:48:5325"}, {"comment": "", "name": "Stade", "coord": {"lat": "48.769702", "lon": "2.830257"}, "administrative_regions": [{"id": "admin:77336", "level": 8, "name": "Neufmoutiers-en-Brie", "coord": {"lat": "48.76783164", "lon": "2.831259044"}, "zip_code": "77610"}], "id": "stop_area:DUA:SA:48:5323"}, {"comment": "", "name": "Centre de Cure", "coord": {"lat": "48.762875", "lon": "2.822803"}, "administrative_regions": [{"id": "admin:77336", "level": 8, "name": "Neufmoutiers-en-Brie", "coord": {"lat": "48.76783164", "lon": "2.831259044"}, "zip_code": "77610"}], "id": "stop_area:DUA:SA:48:5321"}, {"comment": "", "name": "Ville", "coord": {"lat": "48.741647", "lon": "2.792719"}, "administrative_regions": [{"id": "admin:77470", "level": 8, "name": "Tournan-en-Brie", "coord": {"lat": "48.738925", "lon": "2.768264027"}, "zip_code": "77220"}], "id": "stop_area:DUA:SA:48:5643"}, {"comment": "", "name": "Place St Jean", "coord": {"lat": "48.753606", "lon": "2.907213"}, "administrative_regions": [{"id": "admin:77144", "level": 8, "name": "Cr\u00e8vecoeur-en-Brie", "coord": {"lat": "48.75465151", "lon": "2.909154634"}, "zip_code": "77610"}], "id": "stop_area:DUA:SA:48:5103"}, {"comment": "", "name": "Gros Bois", "coord": {"lat": "48.753583", "lon": "2.906288"}, "administrative_regions": [{"id": "admin:77144", "level": 8, "name": "Cr\u00e8vecoeur-en-Brie", "coord": {"lat": "48.75465151", "lon": "2.909154634"}, "zip_code": "77610"}], "id": "stop_area:DUA:SA:48:5101"}, {"comment": "", "name": "Beauregard", "coord": {"lat": "48.75327", "lon": "2.89751"}, "administrative_regions": [{"id": "admin:77144", "level": 8, "name": "Cr\u00e8vecoeur-en-Brie", "coord": {"lat": "48.75465151", "lon": "2.909154634"}, "zip_code": "77610"}], "id": "stop_area:DUA:SA:48:5097"}, {"comment": "", "name": "Monument", "coord": {"lat": "48.754187", "lon": "2.877952"}, "administrative_regions": [{"id": "admin:77229", "level": 8, "name": "La Houssaye-en-Brie", "coord": {"lat": "48.75415421", "lon": "2.874707625"}, "zip_code": "77610"}], "id": "stop_area:DUA:SA:48:5251"}, {"comment": "", "name": "Place Augereau", "coord": {"lat": "48.754002", "lon": "2.874803"}, "administrative_regions": [{"id": "admin:77229", "level": 8, "name": "La Houssaye-en-Brie", "coord": {"lat": "48.75415421", "lon": "2.874707625"}, "zip_code": "77610"}], "id": "stop_area:DUA:SA:48:5237"}, {"comment": "", "name": "La Houssiette", "coord": {"lat": "48.748917", "lon": "2.8756"}, "administrative_regions": [{"id": "admin:77229", "level": 8, "name": "La Houssaye-en-Brie", "coord": {"lat": "48.75415421", "lon": "2.874707625"}, "zip_code": "77610"}], "id": "stop_area:DUA:SA:48:5247"}, {"comment": "", "name": "Vieux Moulin", "coord": {"lat": "48.747483", "lon": "2.870828"}, "administrative_regions": [{"id": "admin:77229", "level": 8, "name": "La Houssaye-en-Brie", "coord": {"lat": "48.75415421", "lon": "2.874707625"}, "zip_code": "77610"}], "id": "stop_area:DUA:SA:48:5253"}, {"comment": "", "name": "Le Limodin", "coord": {"lat": "48.747436", "lon": "2.851914"}, "administrative_regions": [{"id": "admin:77229", "level": 8, "name": "La Houssaye-en-Brie", "coord": {"lat": "48.75415421", "lon": "2.874707625"}, "zip_code": "77610"}], "id": "stop_area:DUA:SA:48:5051"}, {"comment": "", "name": "Bussi\u00e8re", "coord": {"lat": "48.756313", "lon": "2.873964"}, "administrative_regions": [{"id": "admin:77229", "level": 8, "name": "La Houssaye-en-Brie", "coord": {"lat": "48.75415421", "lon": "2.874707625"}, "zip_code": "77610"}], "id": "stop_area:DUA:SA:48:5243"}, {"comment": "", "name": "Chantepie", "coord": {"lat": "48.760341", "lon": "2.871837"}, "administrative_regions": [{"id": "admin:77229", "level": 8, "name": "La Houssaye-en-Brie", "coord": {"lat": "48.75415421", "lon": "2.874707625"}, "zip_code": "77610"}], "id": "stop_area:DUA:SA:48:5241"}, {"comment": "", "name": "Goni\u00e9re", "coord": {"lat": "48.757393", "lon": "2.864771"}, "administrative_regions": [{"id": "admin:77229", "level": 8, "name": "La Houssaye-en-Brie", "coord": {"lat": "48.75415421", "lon": "2.874707625"}, "zip_code": "77610"}], "id": "stop_area:DUA:SA:9:1491"}, {"comment": "", "name": "Le Calvaire", "coord": {"lat": "48.753939", "lon": "2.865348"}, "administrative_regions": [{"id": "admin:77229", "level": 8, "name": "La Houssaye-en-Brie", "coord": {"lat": "48.75415421", "lon": "2.874707625"}, "zip_code": "77610"}], "id": "stop_area:DUA:SA:48:7311"}, {"comment": "", "name": "REPUBLIQUE", "coord": {"lat": "48.731161", "lon": "2.408979"}, "administrative_regions": [{"id": "admin:94077", "level": 8, "name": "Villeneuve-le-Roi", "coord": {"lat": "48.73489476", "lon": "2.418259477"}, "zip_code": "94290"}], "id": "stop_area:DUA:SA:4:184"}, {"comment": "", "name": "CHATEAU", "coord": {"lat": "48.723066", "lon": "2.410986"}, "administrative_regions": [{"id": "admin:91027", "level": 8, "name": "Athis-Mons", "coord": {"lat": "48.7087123", "lon": "2.382104181"}, "zip_code": "91200"}], "id": "stop_area:DUA:SA:4:96"}, {"comment": "", "name": "ATHIS MONS", "coord": {"lat": "48.712655", "lon": "2.40297"}, "administrative_regions": [{"id": "admin:91027", "level": 8, "name": "Athis-Mons", "coord": {"lat": "48.7087123", "lon": "2.382104181"}, "zip_code": "91200"}], "id": "stop_area:DUA:SA:8754525"}, {"comment": "", "name": "PYRAMIDE DE JUVISY", "coord": {"lat": "48.698142", "lon": "2.371678"}, "administrative_regions": [{"id": "admin:91326", "level": 8, "name": "Juvisy-sur-Orge", "coord": {"lat": "48.69127375", "lon": "2.376162865"}, "zip_code": "91260"}, {"id": "admin:91027", "level": 8, "name": "Athis-Mons", "coord": {"lat": "48.7087123", "lon": "2.382104181"}, "zip_code": "91200"}], "id": "stop_area:DUA:SA:8741442"}, {"comment": "", "name": "Mairie", "coord": {"lat": "48.691732", "lon": "2.370677"}, "administrative_regions": [{"id": "admin:91326", "level": 8, "name": "Juvisy-sur-Orge", "coord": {"lat": "48.69127375", "lon": "2.376162865"}, "zip_code": "91260"}], "id": "stop_area:DUA:SA:8741440"}, {"comment": "", "name": "JUVISY", "coord": {"lat": "48.689654", "lon": "2.382728"}, "administrative_regions": [{"id": "admin:91326", "level": 8, "name": "Juvisy-sur-Orge", "coord": {"lat": "48.69127375", "lon": "2.376162865"}, "zip_code": "91260"}], "id": "stop_area:DUA:SA:8754524"}, {"comment": "", "name": "CHATEAU", "coord": {"lat": "48.723066", "lon": "2.410986"}, "administrative_regions": [{"id": "admin:91027", "level": 8, "name": "Athis-Mons", "coord": {"lat": "48.7087123", "lon": "2.382104181"}, "zip_code": "91200"}], "id": "stop_area:DUA:SA:4:25"}, {"comment": "", "name": "Europe", "coord": {"lat": "48.722171", "lon": "2.410828"}, "administrative_regions": [{"id": "admin:91027", "level": 8, "name": "Athis-Mons", "coord": {"lat": "48.7087123", "lon": "2.382104181"}, "zip_code": "91200"}], "id": "stop_area:DUA:SA:4:26"}, {"comment": "", "name": "Tamaris / Le Parc", "coord": {"lat": "48.721973", "lon": "2.412336"}, "administrative_regions": [{"id": "admin:94001", "level": 8, "name": "Ablon-sur-Seine", "coord": {"lat": "48.7216333", "lon": "2.418333641"}, "zip_code": "94480"}], "id": "stop_area:DUA:SA:4:23"}, {"comment": "", "name": "Rue d'Ablon", "coord": {"lat": "48.718577", "lon": "2.407339"}, "administrative_regions": [{"id": "admin:91027", "level": 8, "name": "Athis-Mons", "coord": {"lat": "48.7087123", "lon": "2.382104181"}, "zip_code": "91200"}], "id": "stop_area:DUA:SA:4:28"}, {"comment": "", "name": "Place de Mons", "coord": {"lat": "48.715629", "lon": "2.400985"}, "administrative_regions": [{"id": "admin:91027", "level": 8, "name": "Athis-Mons", "coord": {"lat": "48.7087123", "lon": "2.382104181"}, "zip_code": "91200"}], "id": "stop_area:DUA:SA:4:41"}, {"comment": "", "name": "Clos de Br\u00e9tigny", "coord": {"lat": "48.714116", "lon": "2.398409"}, "administrative_regions": [{"id": "admin:91027", "level": 8, "name": "Athis-Mons", "coord": {"lat": "48.7087123", "lon": "2.382104181"}, "zip_code": "91200"}], "id": "stop_area:DUA:SA:4:42"}, {"comment": "", "name": "St Charles", "coord": {"lat": "48.710115", "lon": "2.391233"}, "administrative_regions": [{"id": "admin:91027", "level": 8, "name": "Athis-Mons", "coord": {"lat": "48.7087123", "lon": "2.382104181"}, "zip_code": "91200"}], "id": "stop_area:DUA:SA:4:75"}, {"comment": "", "name": "CLOS NOLET", "coord": {"lat": "48.71202", "lon": "2.391632"}, "administrative_regions": [{"id": "admin:91027", "level": 8, "name": "Athis-Mons", "coord": {"lat": "48.7087123", "lon": "2.382104181"}, "zip_code": "91200"}], "id": "stop_area:DUA:SA:4:33"}, {"comment": "", "name": "Delalande / Pasteur", "coord": {"lat": "48.713221", "lon": "2.395773"}, "administrative_regions": [{"id": "admin:91027", "level": 8, "name": "Athis-Mons", "coord": {"lat": "48.7087123", "lon": "2.382104181"}, "zip_code": "91200"}], "id": "stop_area:DUA:SA:4:31"}, {"comment": "", "name": "Dagobert", "coord": {"lat": "48.719039", "lon": "2.402945"}, "administrative_regions": [{"id": "admin:91027", "level": 8, "name": "Athis-Mons", "coord": {"lat": "48.7087123", "lon": "2.382104181"}, "zip_code": "91200"}], "id": "stop_area:DUA:SA:4:30"}, {"comment": "", "name": "SNECMA / Gare Routi\u00e8re", "coord": {"lat": "48.612511", "lon": "2.447168"}, "administrative_regions": [{"id": "admin:91174", "level": 8, "name": "Corbeil-Essonnes", "coord": {"lat": "48.61105664", "lon": "2.479278034"}, "zip_code": "91100"}], "id": "stop_area:DUA:SA:29:406"}, {"comment": "", "name": "ESSONNES ROBINSON", "coord": {"lat": "48.605556", "lon": "2.462456"}, "administrative_regions": [{"id": "admin:91174", "level": 8, "name": "Corbeil-Essonnes", "coord": {"lat": "48.61105664", "lon": "2.479278034"}, "zip_code": "91100"}], "id": "stop_area:DUA:SA:8768160"}, {"comment": "", "name": "CORBEIL ESSONNES", "coord": {"lat": "48.613808", "lon": "2.472873"}, "administrative_regions": [{"id": "admin:91174", "level": 8, "name": "Corbeil-Essonnes", "coord": {"lat": "48.61105664", "lon": "2.479278034"}, "zip_code": "91100"}], "id": "stop_area:DUA:SA:8768100"}, {"comment": "", "name": "Ambroise Croizat", "coord": {"lat": "48.606199", "lon": "2.466258"}, "administrative_regions": [{"id": "admin:91174", "level": 8, "name": "Corbeil-Essonnes", "coord": {"lat": "48.61105664", "lon": "2.479278034"}, "zip_code": "91100"}], "id": "stop_area:DUA:SA:8798436"}, {"comment": "", "name": "Les Tarter\u00eats", "coord": {"lat": "48.614484", "lon": "2.458248"}, "administrative_regions": [{"id": "admin:91174", "level": 8, "name": "Corbeil-Essonnes", "coord": {"lat": "48.61105664", "lon": "2.479278034"}, "zip_code": "91100"}], "id": "stop_area:DUA:SA:8797735"}, {"comment": "", "name": "Lyc\u00e9e Robert Doisneau", "coord": {"lat": "48.612965", "lon": "2.459078"}, "administrative_regions": [{"id": "admin:91174", "level": 8, "name": "Corbeil-Essonnes", "coord": {"lat": "48.61105664", "lon": "2.479278034"}, "zip_code": "91100"}], "id": "stop_area:DUA:SA:10:536"}, {"comment": "", "name": "Coll\u00e8ge L\u00e9opold S\u00e9dar Senghor", "coord": {"lat": "48.615379", "lon": "2.458923"}, "administrative_regions": [{"id": "admin:91174", "level": 8, "name": "Corbeil-Essonnes", "coord": {"lat": "48.61105664", "lon": "2.479278034"}, "zip_code": "91100"}], "id": "stop_area:DUA:SA:10:609"}, {"comment": "", "name": "MOULIN GALANT", "coord": {"lat": "48.586357", "lon": "2.473337"}, "administrative_regions": [{"id": "admin:91174", "level": 8, "name": "Corbeil-Essonnes", "coord": {"lat": "48.61105664", "lon": "2.479278034"}, "zip_code": "91100"}], "id": "stop_area:DUA:SA:8768140"}, {"comment": "", "name": "CENTRE COMMERCIAL", "coord": {"lat": "48.619679", "lon": "2.407577"}, "administrative_regions": [{"id": "admin:91182", "level": 8, "name": "Courcouronnes", "coord": {"lat": "48.62193898", "lon": "2.403056281"}, "zip_code": "91080"}], "id": "stop_area:DUA:SA:4:117"}, {"comment": "", "name": "EVRY COURCOURONNES - Centre", "coord": {"lat": "48.625569", "lon": "2.428357"}, "administrative_regions": [{"id": "admin:91228", "level": 8, "name": "Evry", "coord": {"lat": "48.62474314", "lon": "2.430834416"}, "zip_code": "91000"}], "id": "stop_area:DUA:SA:8768138"}, {"comment": "", "name": "EVRY - Val de Seine", "coord": {"lat": "48.633948", "lon": "2.451956"}, "administrative_regions": [{"id": "admin:91228", "level": 8, "name": "Evry", "coord": {"lat": "48.62474314", "lon": "2.430834416"}, "zip_code": "91000"}], "id": "stop_area:DUA:SA:8768136"}, {"comment": "", "name": "EVRY PYRAMIDES", "coord": {"lat": "48.634364", "lon": "2.42533"}, "administrative_regions": [{"id": "admin:91228", "level": 8, "name": "Evry", "coord": {"lat": "48.62474314", "lon": "2.430834416"}, "zip_code": "91000"}], "id": "stop_area:DUA:SA:8797794"}, {"comment": "", "name": "GRAND BOURG", "coord": {"lat": "48.64632", "lon": "2.433279"}, "administrative_regions": [{"id": "admin:91228", "level": 8, "name": "Evry", "coord": {"lat": "48.62474314", "lon": "2.430834416"}, "zip_code": "91000"}, {"id": "admin:91521", "level": 8, "name": "Ris-Orangis", "coord": {"lat": "48.65396289", "lon": "2.411995411"}, "zip_code": "91130"}], "id": "stop_area:DUA:SA:8768135"}, {"comment": "", "name": "ORANGIS BOIS DE L EPINE", "coord": {"lat": "48.636613", "lon": "2.407586"}, "administrative_regions": [{"id": "admin:91521", "level": 8, "name": "Ris-Orangis", "coord": {"lat": "48.65396289", "lon": "2.411995411"}, "zip_code": "91130"}], "id": "stop_area:DUA:SA:8768134"}, {"comment": "", "name": "RIS ORANGIS", "coord": {"lat": "48.658835", "lon": "2.415296"}, "administrative_regions": [{"id": "admin:91521", "level": 8, "name": "Ris-Orangis", "coord": {"lat": "48.65396289", "lon": "2.411995411"}, "zip_code": "91130"}], "id": "stop_area:DUA:SA:8768133"}, {"comment": "", "name": "Daumesnil", "coord": {"lat": "48.651172", "lon": "2.414627"}, "administrative_regions": [{"id": "admin:91521", "level": 8, "name": "Ris-Orangis", "coord": {"lat": "48.65396289", "lon": "2.411995411"}, "zip_code": "91130"}], "id": "stop_area:DUA:SA:8798315"}, {"comment": "", "name": "Jean Jaur\u00e8s", "coord": {"lat": "48.65099", "lon": "2.403896"}, "administrative_regions": [{"id": "admin:91521", "level": 8, "name": "Ris-Orangis", "coord": {"lat": "48.65396289", "lon": "2.411995411"}, "zip_code": "91130"}], "id": "stop_area:DUA:SA:8798416"}, {"comment": "", "name": "LE BRAS DE FER - Evry G\u00e9nopole", "coord": {"lat": "48.623689", "lon": "2.450899"}, "administrative_regions": [{"id": "admin:91228", "level": 8, "name": "Evry", "coord": {"lat": "48.62474314", "lon": "2.430834416"}, "zip_code": "91000"}], "id": "stop_area:DUA:SA:8768139"}, {"comment": "", "name": "Zone Industrielle   LA MARINIERE", "coord": {"lat": "48.61967", "lon": "2.378834"}, "administrative_regions": [{"id": "admin:91086", "level": 8, "name": "Bondoufle", "coord": {"lat": "48.61303726", "lon": "2.376721133"}, "zip_code": "91070"}], "id": "stop_area:DUA:SA:4:115"}, {"comment": "", "name": "RUE DES CLOS", "coord": {"lat": "48.613261", "lon": "2.375614"}, "administrative_regions": [{"id": "admin:91086", "level": 8, "name": "Bondoufle", "coord": {"lat": "48.61303726", "lon": "2.376721133"}, "zip_code": "91070"}], "id": "stop_area:DUA:SA:10:1159"}, {"comment": "", "name": "CROIX BLANCHE", "coord": {"lat": "48.615873", "lon": "2.37734"}, "administrative_regions": [{"id": "admin:91086", "level": 8, "name": "Bondoufle", "coord": {"lat": "48.61303726", "lon": "2.376721133"}, "zip_code": "91070"}], "id": "stop_area:DUA:SA:26:18009"}, {"comment": "", "name": "Mairie", "coord": {"lat": "48.614537", "lon": "2.381094"}, "administrative_regions": [{"id": "admin:91086", "level": 8, "name": "Bondoufle", "coord": {"lat": "48.61303726", "lon": "2.376721133"}, "zip_code": "91070"}], "id": "stop_area:DUA:SA:10:243"}, {"comment": "", "name": "G\u00e9n\u00e9ral de Gaulle", "coord": {"lat": "48.609311", "lon": "2.377877"}, "administrative_regions": [{"id": "admin:91086", "level": 8, "name": "Bondoufle", "coord": {"lat": "48.61303726", "lon": "2.376721133"}, "zip_code": "91070"}], "id": "stop_area:DUA:SA:10:207"}, {"comment": "", "name": "Pierre Marcille", "coord": {"lat": "48.609858", "lon": "2.380324"}, "administrative_regions": [{"id": "admin:91086", "level": 8, "name": "Bondoufle", "coord": {"lat": "48.61303726", "lon": "2.376721133"}, "zip_code": "91070"}], "id": "stop_area:DUA:SA:10:397"}, {"comment": "", "name": "CHARLES DE GAULLE", "coord": {"lat": "48.609032", "lon": "2.377192"}, "administrative_regions": [{"id": "admin:91086", "level": 8, "name": "Bondoufle", "coord": {"lat": "48.61303726", "lon": "2.376721133"}, "zip_code": "91070"}], "id": "stop_area:DUA:SA:26:18011"}, {"comment": "", "name": "PASTEUR", "coord": {"lat": "48.611658", "lon": "2.383023"}, "administrative_regions": [{"id": "admin:91086", "level": 8, "name": "Bondoufle", "coord": {"lat": "48.61303726", "lon": "2.376721133"}, "zip_code": "91070"}], "id": "stop_area:DUA:SA:10:244"}, {"comment": "", "name": "Les Demoiselles", "coord": {"lat": "48.611636", "lon": "2.383803"}, "administrative_regions": [{"id": "admin:91086", "level": 8, "name": "Bondoufle", "coord": {"lat": "48.61303726", "lon": "2.376721133"}, "zip_code": "91070"}], "id": "stop_area:DUA:SA:10:128"}, {"comment": "", "name": "LES PETITS BOIS", "coord": {"lat": "48.608062", "lon": "2.373832"}, "administrative_regions": [{"id": "admin:91086", "level": 8, "name": "Bondoufle", "coord": {"lat": "48.61303726", "lon": "2.376721133"}, "zip_code": "91070"}], "id": "stop_area:DUA:SA:10:374"}, {"comment": "", "name": "Les 3 Parts", "coord": {"lat": "48.609079", "lon": "2.369886"}, "administrative_regions": [{"id": "admin:91086", "level": 8, "name": "Bondoufle", "coord": {"lat": "48.61303726", "lon": "2.376721133"}, "zip_code": "91070"}], "id": "stop_area:DUA:SA:26:18021"}, {"comment": "", "name": "LES COCCINELLES", "coord": {"lat": "48.614143", "lon": "2.367666"}, "administrative_regions": [{"id": "admin:91086", "level": 8, "name": "Bondoufle", "coord": {"lat": "48.61303726", "lon": "2.376721133"}, "zip_code": "91070"}], "id": "stop_area:DUA:SA:10:105"}, {"comment": "", "name": "Jacques Duclos", "coord": {"lat": "48.63691", "lon": "2.335196"}, "administrative_regions": [{"id": "admin:91549", "level": 8, "name": "Sainte-Genevi\u00e8ve-des-Bois", "coord": {"lat": "48.6370321", "lon": "2.332914741"}, "zip_code": "91700"}], "id": "stop_area:DUA:SA:4:122"}, {"comment": "", "name": "SAINTE-GENEVIEVE DES BOIS", "coord": {"lat": "48.653139", "lon": "2.31359"}, "administrative_regions": [{"id": "admin:91549", "level": 8, "name": "Sainte-Genevi\u00e8ve-des-Bois", "coord": {"lat": "48.6370321", "lon": "2.332914741"}, "zip_code": "91700"}], "id": "stop_area:DUA:SA:8754521"}, {"comment": "", "name": "Croix Blanche", "coord": {"lat": "48.624527", "lon": "2.341285"}, "administrative_regions": [{"id": "admin:91549", "level": 8, "name": "Sainte-Genevi\u00e8ve-des-Bois", "coord": {"lat": "48.6370321", "lon": "2.332914741"}, "zip_code": "91700"}], "id": "stop_area:DUA:SA:46:10896"}, {"comment": "", "name": "STADE / MOZART", "coord": {"lat": "48.609879", "lon": "2.324386"}, "administrative_regions": [{"id": "admin:91494", "level": 8, "name": "Le Plessis-P\u00e2t\u00e9", "coord": {"lat": "48.61187338", "lon": "2.326216712"}, "zip_code": "91220"}], "id": "stop_area:DUA:SA:4:110"}, {"comment": "", "name": "MAIRIE(EGLISE)", "coord": {"lat": "48.612167", "lon": "2.326263"}, "administrative_regions": [{"id": "admin:91494", "level": 8, "name": "Le Plessis-P\u00e2t\u00e9", "coord": {"lat": "48.61187338", "lon": "2.326216712"}, "zip_code": "91220"}], "id": "stop_area:DUA:SA:26:18142"}, {"comment": "", "name": "LES BICHES", "coord": {"lat": "48.613956", "lon": "2.328554"}, "administrative_regions": [{"id": "admin:91494", "level": 8, "name": "Le Plessis-P\u00e2t\u00e9", "coord": {"lat": "48.61187338", "lon": "2.326216712"}, "zip_code": "91220"}], "id": "stop_area:DUA:SA:26:18132"}, {"comment": "", "name": "RUE DES CHAMOIS", "coord": {"lat": "48.614477", "lon": "2.325029"}, "administrative_regions": [{"id": "admin:91494", "level": 8, "name": "Le Plessis-P\u00e2t\u00e9", "coord": {"lat": "48.61187338", "lon": "2.326216712"}, "zip_code": "91220"}], "id": "stop_area:DUA:SA:26:18137"}, {"comment": "", "name": "MAIRIE", "coord": {"lat": "48.612293", "lon": "2.325098"}, "administrative_regions": [{"id": "admin:91494", "level": 8, "name": "Le Plessis-P\u00e2t\u00e9", "coord": {"lat": "48.61187338", "lon": "2.326216712"}, "zip_code": "91220"}], "id": "stop_area:DUA:SA:26:18143"}, {"comment": "", "name": "LES ROSES", "coord": {"lat": "48.611978", "lon": "2.32156"}, "administrative_regions": [{"id": "admin:91494", "level": 8, "name": "Le Plessis-P\u00e2t\u00e9", "coord": {"lat": "48.61187338", "lon": "2.326216712"}, "zip_code": "91220"}], "id": "stop_area:DUA:SA:26:18148"}, {"comment": "", "name": "GYMNASE", "coord": {"lat": "48.610288", "lon": "2.323268"}, "administrative_regions": [{"id": "admin:91494", "level": 8, "name": "Le Plessis-P\u00e2t\u00e9", "coord": {"lat": "48.61187338", "lon": "2.326216712"}, "zip_code": "91220"}], "id": "stop_area:DUA:SA:26:18140"}, {"comment": "", "name": "Les Castors", "coord": {"lat": "48.610582", "lon": "2.328202"}, "administrative_regions": [{"id": "admin:91494", "level": 8, "name": "Le Plessis-P\u00e2t\u00e9", "coord": {"lat": "48.61187338", "lon": "2.326216712"}, "zip_code": "91220"}], "id": "stop_area:DUA:SA:26:18133"}, {"comment": "", "name": "CLOS MELINE", "coord": {"lat": "48.614558", "lon": "2.32225"}, "administrative_regions": [{"id": "admin:91494", "level": 8, "name": "Le Plessis-P\u00e2t\u00e9", "coord": {"lat": "48.61187338", "lon": "2.326216712"}, "zip_code": "91220"}], "id": "stop_area:DUA:SA:26:18144"}, {"comment": "", "name": "LA ROGERE", "coord": {"lat": "48.615844", "lon": "2.329964"}, "administrative_regions": [{"id": "admin:91494", "level": 8, "name": "Le Plessis-P\u00e2t\u00e9", "coord": {"lat": "48.61187338", "lon": "2.326216712"}, "zip_code": "91220"}], "id": "stop_area:DUA:SA:26:18147"}, {"comment": "", "name": "BRETIGNY", "coord": {"lat": "48.60697", "lon": "2.302187"}, "administrative_regions": [{"id": "admin:91103", "level": 8, "name": "Br\u00e9tigny-sur-Orge", "coord": {"lat": "48.60964457", "lon": "2.307251597"}, "zip_code": "91220"}], "id": "stop_area:DUA:SA:8754519"}, {"comment": "", "name": "11 NOVEMBRE", "coord": {"lat": "48.607615", "lon": "2.305091"}, "administrative_regions": [{"id": "admin:91103", "level": 8, "name": "Br\u00e9tigny-sur-Orge", "coord": {"lat": "48.60964457", "lon": "2.307251597"}, "zip_code": "91220"}], "id": "stop_area:DUA:SA:26:18028"}, {"comment": "", "name": "EDF / GDF", "coord": {"lat": "48.605195", "lon": "2.300078"}, "administrative_regions": [{"id": "admin:91103", "level": 8, "name": "Br\u00e9tigny-sur-Orge", "coord": {"lat": "48.60964457", "lon": "2.307251597"}, "zip_code": "91220"}], "id": "stop_area:DUA:SA:26:18047"}, {"comment": "", "name": "LUCIEN CLAUSE", "coord": {"lat": "48.606404", "lon": "2.300192"}, "administrative_regions": [{"id": "admin:91103", "level": 8, "name": "Br\u00e9tigny-sur-Orge", "coord": {"lat": "48.60964457", "lon": "2.307251597"}, "zip_code": "91220"}], "id": "stop_area:DUA:SA:26:18065"}, {"comment": "", "name": "PMI", "coord": {"lat": "48.605206", "lon": "2.305486"}, "administrative_regions": [{"id": "admin:91103", "level": 8, "name": "Br\u00e9tigny-sur-Orge", "coord": {"lat": "48.60964457", "lon": "2.307251597"}, "zip_code": "91220"}], "id": "stop_area:DUA:SA:26:18075"}, {"comment": "", "name": "BRANLY", "coord": {"lat": "48.602918", "lon": "2.305833"}, "administrative_regions": [{"id": "admin:91103", "level": 8, "name": "Br\u00e9tigny-sur-Orge", "coord": {"lat": "48.60964457", "lon": "2.307251597"}, "zip_code": "91220"}], "id": "stop_area:DUA:SA:26:18038"}, {"comment": "", "name": "LES ARDRETS", "coord": {"lat": "48.602802", "lon": "2.308862"}, "administrative_regions": [{"id": "admin:91103", "level": 8, "name": "Br\u00e9tigny-sur-Orge", "coord": {"lat": "48.60964457", "lon": "2.307251597"}, "zip_code": "91220"}], "id": "stop_area:DUA:SA:26:18029"}, {"comment": "", "name": "MARYSE BASTIE", "coord": {"lat": "48.6042", "lon": "2.311871"}, "administrative_regions": [{"id": "admin:91103", "level": 8, "name": "Br\u00e9tigny-sur-Orge", "coord": {"lat": "48.60964457", "lon": "2.307251597"}, "zip_code": "91220"}], "id": "stop_area:DUA:SA:26:18034"}, {"comment": "", "name": "80 VINGTS ARPENTS", "coord": {"lat": "48.605023", "lon": "2.314032"}, "administrative_regions": [{"id": "admin:91103", "level": 8, "name": "Br\u00e9tigny-sur-Orge", "coord": {"lat": "48.60964457", "lon": "2.307251597"}, "zip_code": "91220"}], "id": "stop_area:DUA:SA:26:18031"}, {"comment": "", "name": "BOIS DE VETILLE", "coord": {"lat": "48.606633", "lon": "2.317196"}, "administrative_regions": [{"id": "admin:91103", "level": 8, "name": "Br\u00e9tigny-sur-Orge", "coord": {"lat": "48.60964457", "lon": "2.307251597"}, "zip_code": "91220"}], "id": "stop_area:DUA:SA:26:18083"}, {"comment": "", "name": "BA 217", "coord": {"lat": "48.605326", "lon": "2.321683"}, "administrative_regions": [{"id": "admin:91103", "level": 8, "name": "Br\u00e9tigny-sur-Orge", "coord": {"lat": "48.60964457", "lon": "2.307251597"}, "zip_code": "91220"}], "id": "stop_area:DUA:SA:26:18042"}, {"comment": "", "name": "LA MARINIERE", "coord": {"lat": "48.608448", "lon": "2.315725"}, "administrative_regions": [{"id": "admin:91103", "level": 8, "name": "Br\u00e9tigny-sur-Orge", "coord": {"lat": "48.60964457", "lon": "2.307251597"}, "zip_code": "91220"}], "id": "stop_area:DUA:SA:26:18069"}, {"comment": "", "name": "LYCEE", "coord": {"lat": "48.608722", "lon": "2.312417"}, "administrative_regions": [{"id": "admin:91103", "level": 8, "name": "Br\u00e9tigny-sur-Orge", "coord": {"lat": "48.60964457", "lon": "2.307251597"}, "zip_code": "91220"}], "id": "stop_area:DUA:SA:26:18066"}, {"comment": "", "name": "COSSIGNY", "coord": {"lat": "48.601574", "lon": "2.305447"}, "administrative_regions": [{"id": "admin:91103", "level": 8, "name": "Br\u00e9tigny-sur-Orge", "coord": {"lat": "48.60964457", "lon": "2.307251597"}, "zip_code": "91220"}], "id": "stop_area:DUA:SA:26:18045"}, {"comment": "", "name": "MAURICE BOYAU", "coord": {"lat": "48.604999", "lon": "2.30535"}, "administrative_regions": [{"id": "admin:91103", "level": 8, "name": "Br\u00e9tigny-sur-Orge", "coord": {"lat": "48.60964457", "lon": "2.307251597"}, "zip_code": "91220"}], "id": "stop_area:DUA:SA:26:18081"}, {"comment": "", "name": "VICTOR HUGO", "coord": {"lat": "48.608002", "lon": "2.306826"}, "administrative_regions": [{"id": "admin:91103", "level": 8, "name": "Br\u00e9tigny-sur-Orge", "coord": {"lat": "48.60964457", "lon": "2.307251597"}, "zip_code": "91220"}], "id": "stop_area:DUA:SA:26:18052"}, {"comment": "", "name": "LA FONTAINE", "coord": {"lat": "48.615609", "lon": "2.305132"}, "administrative_regions": [{"id": "admin:91103", "level": 8, "name": "Br\u00e9tigny-sur-Orge", "coord": {"lat": "48.60964457", "lon": "2.307251597"}, "zip_code": "91220"}], "id": "stop_area:DUA:SA:26:18055"}, {"comment": "", "name": "LEON BLUM", "coord": {"lat": "48.616198", "lon": "2.302293"}, "administrative_regions": [{"id": "admin:91103", "level": 8, "name": "Br\u00e9tigny-sur-Orge", "coord": {"lat": "48.60964457", "lon": "2.307251597"}, "zip_code": "91220"}], "id": "stop_area:DUA:SA:26:18037"}, {"comment": "", "name": "R\u00e9sidence du Val", "coord": {"lat": "48.725476", "lon": "2.433324"}, "administrative_regions": [{"id": "admin:94001", "level": 8, "name": "Ablon-sur-Seine", "coord": {"lat": "48.7216333", "lon": "2.418333641"}, "zip_code": "94480"}], "id": "stop_area:DUA:SA:4:11"}, {"comment": "", "name": "Sacr\u00e9 Coeur", "coord": {"lat": "48.724123", "lon": "2.415606"}, "administrative_regions": [{"id": "admin:94001", "level": 8, "name": "Ablon-sur-Seine", "coord": {"lat": "48.7216333", "lon": "2.418333641"}, "zip_code": "94480"}], "id": "stop_area:DUA:SA:4:22"}, {"comment": "", "name": "Cimeti\u00e8re", "coord": {"lat": "48.710892", "lon": "2.388513"}, "administrative_regions": [{"id": "admin:91027", "level": 8, "name": "Athis-Mons", "coord": {"lat": "48.7087123", "lon": "2.382104181"}, "zip_code": "91200"}], "id": "stop_area:DUA:SA:4:35"}, {"comment": "", "name": "PLACE HENRI DEUDON", "coord": {"lat": "48.709317", "lon": "2.386773"}, "administrative_regions": [{"id": "admin:91027", "level": 8, "name": "Athis-Mons", "coord": {"lat": "48.7087123", "lon": "2.382104181"}, "zip_code": "91200"}], "id": "stop_area:DUA:SA:4:37"}, {"comment": "", "name": "Cit\u00e9 de l'Air", "coord": {"lat": "48.710824", "lon": "2.383403"}, "administrative_regions": [{"id": "admin:91027", "level": 8, "name": "Athis-Mons", "coord": {"lat": "48.7087123", "lon": "2.382104181"}, "zip_code": "91200"}], "id": "stop_area:DUA:SA:4:39"}, {"comment": "", "name": "Porte de L'Essonne", "coord": {"lat": "48.714619", "lon": "2.371809"}, "administrative_regions": [{"id": "admin:91027", "level": 8, "name": "Athis-Mons", "coord": {"lat": "48.7087123", "lon": "2.382104181"}, "zip_code": "91200"}], "id": "stop_area:DUA:SA:59844"}, {"comment": "", "name": "Place Neubiberg", "coord": {"lat": "48.726121", "lon": "2.424875"}, "administrative_regions": [{"id": "admin:94001", "level": 8, "name": "Ablon-sur-Seine", "coord": {"lat": "48.7216333", "lon": "2.418333641"}, "zip_code": "94480"}], "id": "stop_area:DUA:SA:4:19"}, {"comment": "", "name": "Cit\u00e9 des Vergers", "coord": {"lat": "48.757011", "lon": "2.400519"}, "administrative_regions": [{"id": "admin:94073", "level": 8, "name": "Thiais", "coord": {"lat": "48.76577965", "lon": "2.392136794"}, "zip_code": "94320"}], "id": "stop_area:DUA:SA:4:98"}, {"comment": "", "name": "PAVE GRIGNON", "coord": {"lat": "48.756509", "lon": "2.398982"}, "administrative_regions": [{"id": "admin:94073", "level": 8, "name": "Thiais", "coord": {"lat": "48.76577965", "lon": "2.392136794"}, "zip_code": "94320"}], "id": "stop_area:DUA:SA:4:103"}, {"comment": "", "name": "Levasseur", "coord": {"lat": "48.754949", "lon": "2.390016"}, "administrative_regions": [{"id": "admin:94073", "level": 8, "name": "Thiais", "coord": {"lat": "48.76577965", "lon": "2.392136794"}, "zip_code": "94320"}], "id": "stop_area:DUA:SA:4:101"}, {"comment": "", "name": "INSTITUT GRIGNON", "coord": {"lat": "48.752879", "lon": "2.396484"}, "administrative_regions": [{"id": "admin:94073", "level": 8, "name": "Thiais", "coord": {"lat": "48.76577965", "lon": "2.392136794"}, "zip_code": "94320"}], "id": "stop_area:DUA:SA:4:102"}, {"comment": "", "name": "Plaine Basse", "coord": {"lat": "48.705805", "lon": "2.399981"}, "administrative_regions": [{"id": "admin:91027", "level": 8, "name": "Athis-Mons", "coord": {"lat": "48.7087123", "lon": "2.382104181"}, "zip_code": "91200"}], "id": "stop_area:DUA:SA:4:105"}, {"comment": "", "name": "Norbert DENTRESSANGLE", "coord": {"lat": "48.695113", "lon": "2.391848"}, "administrative_regions": [{"id": "admin:91027", "level": 8, "name": "Athis-Mons", "coord": {"lat": "48.7087123", "lon": "2.382104181"}, "zip_code": "91200"}], "id": "stop_area:DUA:SA:4:4"}, {"comment": "", "name": "Sanders", "coord": {"lat": "48.692516", "lon": "2.389191"}, "administrative_regions": [{"id": "admin:91027", "level": 8, "name": "Athis-Mons", "coord": {"lat": "48.7087123", "lon": "2.382104181"}, "zip_code": "91200"}, {"id": "admin:91326", "level": 8, "name": "Juvisy-sur-Orge", "coord": {"lat": "48.69127375", "lon": "2.376162865"}, "zip_code": "91260"}], "id": "stop_area:DUA:SA:4:2"}, {"comment": "", "name": "Maurevert", "coord": {"lat": "48.659025", "lon": "2.823718"}, "administrative_regions": [{"id": "admin:77107", "level": 8, "name": "Chaumes-en-Brie", "coord": {"lat": "48.66602147", "lon": "2.842017326"}, "zip_code": "77390"}], "id": "stop_area:DUA:SA:48:5073"}, {"comment": "", "name": "Eglise", "coord": {"lat": "48.666464", "lon": "2.842529"}, "administrative_regions": [{"id": "admin:77107", "level": 8, "name": "Chaumes-en-Brie", "coord": {"lat": "48.66602147", "lon": "2.842017326"}, "zip_code": "77390"}], "id": "stop_area:DUA:SA:48:5065"}, {"comment": "", "name": "Ancienne Gare", "coord": {"lat": "48.670915", "lon": "2.846759"}, "administrative_regions": [{"id": "admin:77107", "level": 8, "name": "Chaumes-en-Brie", "coord": {"lat": "48.66602147", "lon": "2.842017326"}, "zip_code": "77390"}], "id": "stop_area:DUA:SA:52:1104"}, {"comment": "", "name": "Forest Ferme", "coord": {"lat": "48.672044", "lon": "2.818439"}, "administrative_regions": [{"id": "admin:77107", "level": 8, "name": "Chaumes-en-Brie", "coord": {"lat": "48.66602147", "lon": "2.842017326"}, "zip_code": "77390"}], "id": "stop_area:DUA:SA:48:5067"}, {"comment": "", "name": "Coll\u00e8ge Charles P\u00e9guy", "coord": {"lat": "48.646858", "lon": "2.830346"}, "administrative_regions": [{"id": "admin:77493", "level": 8, "name": "Verneuil-l'Etang", "coord": {"lat": "48.64428647", "lon": "2.834197751"}, "zip_code": "77390"}], "id": "stop_area:DUA:SA:48:5220"}, {"comment": "", "name": "VERNEUIL L'ETANG", "coord": {"lat": "48.644648", "lon": "2.825131"}, "administrative_regions": [{"id": "admin:77493", "level": 8, "name": "Verneuil-l'Etang", "coord": {"lat": "48.64428647", "lon": "2.834197751"}, "zip_code": "77390"}], "id": "stop_area:DUA:SA:8711607"}, {"comment": "", "name": "Eglise", "coord": {"lat": "48.655025", "lon": "2.868952"}, "administrative_regions": [{"id": "admin:77007", "level": 8, "name": "Argenti\u00e8res", "coord": {"lat": "48.65441668", "lon": "2.869212439"}, "zip_code": "77390"}], "id": "stop_area:DUA:SA:48:5110"}, {"comment": "", "name": "Argenti\u00e8res", "coord": {"lat": "48.652126", "lon": "2.866559"}, "administrative_regions": [{"id": "admin:77007", "level": 8, "name": "Argenti\u00e8res", "coord": {"lat": "48.65441668", "lon": "2.869212439"}, "zip_code": "77390"}], "id": "stop_area:DUA:SA:48:5001"}, {"comment": "", "name": "Grands Saules", "coord": {"lat": "48.652024", "lon": "2.866294"}, "administrative_regions": [{"id": "admin:77007", "level": 8, "name": "Argenti\u00e8res", "coord": {"lat": "48.65441668", "lon": "2.869212439"}, "zip_code": "77390"}], "id": "stop_area:DUA:SA:52:468"}, {"comment": "", "name": "Grille du Ch\u00e2teau", "coord": {"lat": "48.646661", "lon": "2.859917"}, "administrative_regions": [{"id": "admin:77029", "level": 8, "name": "Beauvoir", "coord": {"lat": "48.64525996", "lon": "2.862816959"}, "zip_code": "77390"}], "id": "stop_area:DUA:SA:48:5005"}, {"comment": "", "name": "Haras", "coord": {"lat": "48.653903", "lon": "2.849916"}, "administrative_regions": [{"id": "admin:77029", "level": 8, "name": "Beauvoir", "coord": {"lat": "48.64525996", "lon": "2.862816959"}, "zip_code": "77390"}], "id": "stop_area:DUA:SA:48:5071"}, {"comment": "", "name": "Arcy", "coord": {"lat": "48.663518", "lon": "2.868969"}, "administrative_regions": [{"id": "admin:77107", "level": 8, "name": "Chaumes-en-Brie", "coord": {"lat": "48.66602147", "lon": "2.842017326"}, "zip_code": "77390"}], "id": "stop_area:DUA:SA:48:5063"}, {"comment": "", "name": "Usine Barbara", "coord": {"lat": "48.665422", "lon": "2.851971"}, "administrative_regions": [{"id": "admin:77107", "level": 8, "name": "Chaumes-en-Brie", "coord": {"lat": "48.66602147", "lon": "2.842017326"}, "zip_code": "77390"}], "id": "stop_area:DUA:SA:48:5077"}, {"comment": "", "name": "Gr\u00e9gy", "coord": {"lat": "48.666395", "lon": "2.621246"}, "administrative_regions": [{"id": "admin:77175", "level": 8, "name": "Evry-Gr\u00e9gy-sur-Yerre", "coord": {"lat": "48.65244226", "lon": "2.633158688"}, "zip_code": "77166"}], "id": "stop_area:DUA:SA:48:5040"}, {"comment": "", "name": "Ch\u00e2teau", "coord": {"lat": "48.652703", "lon": "2.633205"}, "administrative_regions": [{"id": "admin:77175", "level": 8, "name": "Evry-Gr\u00e9gy-sur-Yerre", "coord": {"lat": "48.65244226", "lon": "2.633158688"}, "zip_code": "77166"}], "id": "stop_area:DUA:SA:28:34"}, {"comment": "", "name": "Marquis", "coord": {"lat": "48.654172", "lon": "2.635316"}, "administrative_regions": [{"id": "admin:77175", "level": 8, "name": "Evry-Gr\u00e9gy-sur-Yerre", "coord": {"lat": "48.65244226", "lon": "2.633158688"}, "zip_code": "77166"}], "id": "stop_area:DUA:SA:48:5113"}, {"comment": "", "name": "PLESSIS", "coord": {"lat": "48.655343", "lon": "2.635215"}, "administrative_regions": [{"id": "admin:77175", "level": 8, "name": "Evry-Gr\u00e9gy-sur-Yerre", "coord": {"lat": "48.65244226", "lon": "2.633158688"}, "zip_code": "77166"}], "id": "stop_area:DUA:SA:28:215"}, {"comment": "", "name": "Fontaine", "coord": {"lat": "48.657996", "lon": "2.631752"}, "administrative_regions": [{"id": "admin:77175", "level": 8, "name": "Evry-Gr\u00e9gy-sur-Yerre", "coord": {"lat": "48.65244226", "lon": "2.633158688"}, "zip_code": "77166"}], "id": "stop_area:DUA:SA:28:96"}, {"comment": "", "name": "Hardilli\u00e8res", "coord": {"lat": "48.651259", "lon": "2.690217"}, "administrative_regions": [{"id": "admin:77455", "level": 8, "name": "Soignolles-en-Brie", "coord": {"lat": "48.65357549", "lon": "2.698133839"}, "zip_code": "77111"}], "id": "stop_area:DUA:SA:48:5575"}, {"comment": "", "name": "Eglise", "coord": {"lat": "48.653781", "lon": "2.698405"}, "administrative_regions": [{"id": "admin:77455", "level": 8, "name": "Soignolles-en-Brie", "coord": {"lat": "48.65357549", "lon": "2.698133839"}, "zip_code": "77111"}], "id": "stop_area:DUA:SA:48:5573"}, {"comment": "", "name": "Pont", "coord": {"lat": "48.656007", "lon": "2.699964"}, "administrative_regions": [{"id": "admin:77455", "level": 8, "name": "Soignolles-en-Brie", "coord": {"lat": "48.65357549", "lon": "2.698133839"}, "zip_code": "77111"}], "id": "stop_area:DUA:SA:48:5577"}, {"comment": "", "name": "La Burelle", "coord": {"lat": "48.65638", "lon": "2.703182"}, "administrative_regions": [{"id": "admin:77455", "level": 8, "name": "Soignolles-en-Brie", "coord": {"lat": "48.65357549", "lon": "2.698133839"}, "zip_code": "77111"}], "id": "stop_area:DUA:SA:13:163"}, {"comment": "", "name": "Burelles", "coord": {"lat": "48.656464", "lon": "2.703454"}, "administrative_regions": [{"id": "admin:77455", "level": 8, "name": "Soignolles-en-Brie", "coord": {"lat": "48.65357549", "lon": "2.698133839"}, "zip_code": "77111"}], "id": "stop_area:DUA:SA:48:5571"}, {"comment": "", "name": "Cimeti\u00e8re", "coord": {"lat": "48.657286", "lon": "2.710936"}, "administrative_regions": [{"id": "admin:77457", "level": 8, "name": "Solers", "coord": {"lat": "48.65813782", "lon": "2.716578369"}, "zip_code": "77170"}], "id": "stop_area:DUA:SA:52:4884"}, {"comment": "", "name": "Mairie", "coord": {"lat": "48.658216", "lon": "2.716737"}, "administrative_regions": [{"id": "admin:77457", "level": 8, "name": "Solers", "coord": {"lat": "48.65813782", "lon": "2.716578369"}, "zip_code": "77170"}], "id": "stop_area:DUA:SA:13:148"}, {"comment": "", "name": "Champs au Maigre", "coord": {"lat": "48.65726", "lon": "2.710658"}, "administrative_regions": [{"id": "admin:77457", "level": 8, "name": "Solers", "coord": {"lat": "48.65813782", "lon": "2.716578369"}, "zip_code": "77170"}], "id": "stop_area:DUA:SA:13:57"}, {"comment": "", "name": "RN19", "coord": {"lat": "48.670029", "lon": "2.696059"}, "administrative_regions": [{"id": "admin:77127", "level": 8, "name": "Coubert", "coord": {"lat": "48.66985206", "lon": "2.696411957"}, "zip_code": "77170"}], "id": "stop_area:DUA:SA:48:5093"}, {"comment": "", "name": "N19", "coord": {"lat": "48.670024", "lon": "2.696031"}, "administrative_regions": [{"id": "admin:77127", "level": 8, "name": "Coubert", "coord": {"lat": "48.66985206", "lon": "2.696411957"}, "zip_code": "77170"}], "id": "stop_area:DUA:SA:52:1555"}, {"comment": "", "name": "Coubert RN", "coord": {"lat": "48.670124", "lon": "2.695849"}, "administrative_regions": [{"id": "admin:77127", "level": 8, "name": "Coubert", "coord": {"lat": "48.66985206", "lon": "2.696411957"}, "zip_code": "77170"}], "id": "stop_area:DUA:SA:13:83"}, {"comment": "", "name": "Mairie", "coord": {"lat": "48.67169", "lon": "2.696681"}, "administrative_regions": [{"id": "admin:77127", "level": 8, "name": "Coubert", "coord": {"lat": "48.66985206", "lon": "2.696411957"}, "zip_code": "77170"}], "id": "stop_area:DUA:SA:52:14626"}, {"comment": "", "name": "Maison M\u00e9dicale", "coord": {"lat": "48.6753", "lon": "2.699373"}, "administrative_regions": [{"id": "admin:77127", "level": 8, "name": "Coubert", "coord": {"lat": "48.66985206", "lon": "2.696411957"}, "zip_code": "77170"}], "id": "stop_area:DUA:SA:52:1552"}, {"comment": "", "name": "Mar\u00e9chal Joffre", "coord": {"lat": "48.677963", "lon": "2.663951"}, "administrative_regions": [{"id": "admin:77217", "level": 8, "name": "Grisy-Suisnes", "coord": {"lat": "48.68546436", "lon": "2.665023325"}, "zip_code": "77166"}], "id": "stop_area:DUA:SA:13:161"}, {"comment": "", "name": "Village", "coord": {"lat": "48.682356", "lon": "2.6648"}, "administrative_regions": [{"id": "admin:77217", "level": 8, "name": "Grisy-Suisnes", "coord": {"lat": "48.68546436", "lon": "2.665023325"}, "zip_code": "77166"}], "id": "stop_area:DUA:SA:13:297"}, {"comment": "", "name": "Campus", "coord": {"lat": "48.756969", "lon": "2.699543"}, "administrative_regions": [{"id": "admin:77350", "level": 8, "name": "Ozoir-la-Ferri\u00e8re", "coord": {"lat": "48.76236336", "lon": "2.671737169"}, "zip_code": "77330"}], "id": "stop_area:DUA:SA:48:5070"}, {"comment": "", "name": "OZOIR LA FERRIERE", "coord": {"lat": "48.770601", "lon": "2.689819"}, "administrative_regions": [{"id": "admin:77350", "level": 8, "name": "Ozoir-la-Ferri\u00e8re", "coord": {"lat": "48.76236336", "lon": "2.671737169"}, "zip_code": "77330"}], "id": "stop_area:DUA:SA:8711602"}, {"comment": "", "name": "Intermarch\u00e9", "coord": {"lat": "48.757633", "lon": "2.700077"}, "administrative_regions": [{"id": "admin:77350", "level": 8, "name": "Ozoir-la-Ferri\u00e8re", "coord": {"lat": "48.76236336", "lon": "2.671737169"}, "zip_code": "77330"}], "id": "stop_area:DUA:SA:48:5391"}, {"comment": "", "name": "Lyc\u00e9e Lino Ventura", "coord": {"lat": "48.758949", "lon": "2.69282"}, "administrative_regions": [{"id": "admin:77350", "level": 8, "name": "Ozoir-la-Ferri\u00e8re", "coord": {"lat": "48.76236336", "lon": "2.671737169"}, "zip_code": "77330"}], "id": "stop_area:DUA:SA:48:5129"}, {"comment": "", "name": "Wolfgang Amadeus Mozart", "coord": {"lat": "48.757994", "lon": "2.691964"}, "administrative_regions": [{"id": "admin:77350", "level": 8, "name": "Ozoir-la-Ferri\u00e8re", "coord": {"lat": "48.76236336", "lon": "2.671737169"}, "zip_code": "77330"}], "id": "stop_area:DUA:SA:48:5347"}, {"comment": "", "name": "Pont", "coord": {"lat": "48.74445", "lon": "2.776414"}, "administrative_regions": [{"id": "admin:77470", "level": 8, "name": "Tournan-en-Brie", "coord": {"lat": "48.738925", "lon": "2.768264027"}, "zip_code": "77220"}], "id": "stop_area:DUA:SA:48:5633"}, {"comment": "", "name": "TOURNAN", "coord": {"lat": "48.739065", "lon": "2.75948"}, "administrative_regions": [{"id": "admin:77470", "level": 8, "name": "Tournan-en-Brie", "coord": {"lat": "48.738925", "lon": "2.768264027"}, "zip_code": "77220"}], "id": "stop_area:DUA:SA:8711621"}, {"comment": "", "name": "PSR", "coord": {"lat": "48.742599", "lon": "2.769997"}, "administrative_regions": [{"id": "admin:77470", "level": 8, "name": "Tournan-en-Brie", "coord": {"lat": "48.738925", "lon": "2.768264027"}, "zip_code": "77220"}], "id": "stop_area:DUA:SA:48:5637"}, {"comment": "", "name": "Penthi\u00e8vre", "coord": {"lat": "48.742544", "lon": "2.772912"}, "administrative_regions": [{"id": "admin:77470", "level": 8, "name": "Tournan-en-Brie", "coord": {"lat": "48.738925", "lon": "2.768264027"}, "zip_code": "77220"}], "id": "stop_area:DUA:SA:48:5623"}, {"comment": "", "name": "Rue de Ville", "coord": {"lat": "48.741336", "lon": "2.774974"}, "administrative_regions": [{"id": "admin:77470", "level": 8, "name": "Tournan-en-Brie", "coord": {"lat": "48.738925", "lon": "2.768264027"}, "zip_code": "77220"}], "id": "stop_area:DUA:SA:48:5661"}, {"comment": "", "name": "Pompiers", "coord": {"lat": "48.742191", "lon": "2.779419"}, "administrative_regions": [{"id": "admin:77470", "level": 8, "name": "Tournan-en-Brie", "coord": {"lat": "48.738925", "lon": "2.768264027"}, "zip_code": "77220"}], "id": "stop_area:DUA:SA:48:5631"}, {"comment": "", "name": "Cottages", "coord": {"lat": "48.740309", "lon": "2.776841"}, "administrative_regions": [{"id": "admin:77470", "level": 8, "name": "Tournan-en-Brie", "coord": {"lat": "48.738925", "lon": "2.768264027"}, "zip_code": "77220"}], "id": "stop_area:DUA:SA:48:5603"}, {"comment": "", "name": "Mar\u00e9chal Foch", "coord": {"lat": "48.740009", "lon": "2.772965"}, "administrative_regions": [{"id": "admin:77470", "level": 8, "name": "Tournan-en-Brie", "coord": {"lat": "48.738925", "lon": "2.768264027"}, "zip_code": "77220"}], "id": "stop_area:DUA:SA:48:5617"}, {"comment": "", "name": "Poste", "coord": {"lat": "48.738754", "lon": "2.768198"}, "administrative_regions": [{"id": "admin:77470", "level": 8, "name": "Tournan-en-Brie", "coord": {"lat": "48.738925", "lon": "2.768264027"}, "zip_code": "77220"}], "id": "stop_area:DUA:SA:48:5635"}, {"comment": "", "name": "S\u00e9curit\u00e9 Sociale", "coord": {"lat": "48.738428", "lon": "2.773829"}, "administrative_regions": [{"id": "admin:77470", "level": 8, "name": "Tournan-en-Brie", "coord": {"lat": "48.738925", "lon": "2.768264027"}, "zip_code": "77220"}], "id": "stop_area:DUA:SA:48:5646"}, {"comment": "", "name": "Zone Industrielle Eiffel", "coord": {"lat": "48.737623", "lon": "2.77514"}, "administrative_regions": [{"id": "admin:77470", "level": 8, "name": "Tournan-en-Brie", "coord": {"lat": "48.738925", "lon": "2.768264027"}, "zip_code": "77220"}], "id": "stop_area:DUA:SA:48:5664"}, {"comment": "", "name": "Petite Motte / Closeau", "coord": {"lat": "48.735828", "lon": "2.780418"}, "administrative_regions": [{"id": "admin:77470", "level": 8, "name": "Tournan-en-Brie", "coord": {"lat": "48.738925", "lon": "2.768264027"}, "zip_code": "77220"}], "id": "stop_area:DUA:SA:48:5625"}, {"comment": "", "name": "Petite Motte", "coord": {"lat": "48.736441", "lon": "2.780008"}, "administrative_regions": [{"id": "admin:77470", "level": 8, "name": "Tournan-en-Brie", "coord": {"lat": "48.738925", "lon": "2.768264027"}, "zip_code": "77220"}], "id": "stop_area:DUA:SA:48:6215"}, {"comment": "", "name": "Foyer Rural", "coord": {"lat": "48.740454", "lon": "2.765379"}, "administrative_regions": [{"id": "admin:77470", "level": 8, "name": "Tournan-en-Brie", "coord": {"lat": "48.738925", "lon": "2.768264027"}, "zip_code": "77220"}], "id": "stop_area:DUA:SA:48:5612"}, {"comment": "", "name": "Coll\u00e8ge Vermay", "coord": {"lat": "48.743593", "lon": "2.752113"}, "administrative_regions": [{"id": "admin:77470", "level": 8, "name": "Tournan-en-Brie", "coord": {"lat": "48.738925", "lon": "2.768264027"}, "zip_code": "77220"}], "id": "stop_area:DUA:SA:48:5080"}, {"comment": "", "name": "Kipling", "coord": {"lat": "48.742913", "lon": "2.760283"}, "administrative_regions": [{"id": "admin:77470", "level": 8, "name": "Tournan-en-Brie", "coord": {"lat": "48.738925", "lon": "2.768264027"}, "zip_code": "77220"}], "id": "stop_area:DUA:SA:48:7383"}, {"comment": "", "name": "Origny", "coord": {"lat": "48.7429", "lon": "2.76018"}, "administrative_regions": [{"id": "admin:77470", "level": 8, "name": "Tournan-en-Brie", "coord": {"lat": "48.738925", "lon": "2.768264027"}, "zip_code": "77220"}], "id": "stop_area:DUA:SA:48:5621"}, {"comment": "", "name": "Lully", "coord": {"lat": "48.743002", "lon": "2.760419"}, "administrative_regions": [{"id": "admin:77470", "level": 8, "name": "Tournan-en-Brie", "coord": {"lat": "48.738925", "lon": "2.768264027"}, "zip_code": "77220"}], "id": "stop_area:DUA:SA:48:7385"}, {"comment": "", "name": "De Gaulle", "coord": {"lat": "48.746132", "lon": "2.762354"}, "administrative_regions": [{"id": "admin:77470", "level": 8, "name": "Tournan-en-Brie", "coord": {"lat": "48.738925", "lon": "2.768264027"}, "zip_code": "77220"}], "id": "stop_area:DUA:SA:48:5605"}, {"comment": "", "name": "Beaudelet", "coord": {"lat": "48.766913", "lon": "2.691175"}, "administrative_regions": [{"id": "admin:77350", "level": 8, "name": "Ozoir-la-Ferri\u00e8re", "coord": {"lat": "48.76236336", "lon": "2.671737169"}, "zip_code": "77330"}], "id": "stop_area:DUA:SA:48:5345"}, {"comment": "", "name": "Anouilh", "coord": {"lat": "48.762747", "lon": "2.695769"}, "administrative_regions": [{"id": "admin:77350", "level": 8, "name": "Ozoir-la-Ferri\u00e8re", "coord": {"lat": "48.76236336", "lon": "2.671737169"}, "zip_code": "77330"}], "id": "stop_area:DUA:SA:48:5337"}, {"comment": "", "name": "Kessel", "coord": {"lat": "48.761479", "lon": "2.69727"}, "administrative_regions": [{"id": "admin:77350", "level": 8, "name": "Ozoir-la-Ferri\u00e8re", "coord": {"lat": "48.76236336", "lon": "2.671737169"}, "zip_code": "77330"}], "id": "stop_area:DUA:SA:48:5395"}, {"comment": "", "name": "Pyramide", "coord": {"lat": "48.760127", "lon": "2.698681"}, "administrative_regions": [{"id": "admin:77350", "level": 8, "name": "Ozoir-la-Ferri\u00e8re", "coord": {"lat": "48.76236336", "lon": "2.671737169"}, "zip_code": "77330"}], "id": "stop_area:DUA:SA:48:5435"}, {"comment": "", "name": "Leconte de Lisle", "coord": {"lat": "48.757121", "lon": "2.696927"}, "administrative_regions": [{"id": "admin:77350", "level": 8, "name": "Ozoir-la-Ferri\u00e8re", "coord": {"lat": "48.76236336", "lon": "2.671737169"}, "zip_code": "77330"}], "id": "stop_area:DUA:SA:48:5411"}, {"comment": "", "name": "Jules Verne", "coord": {"lat": "48.755036", "lon": "2.693956"}, "administrative_regions": [{"id": "admin:77350", "level": 8, "name": "Ozoir-la-Ferri\u00e8re", "coord": {"lat": "48.76236336", "lon": "2.671737169"}, "zip_code": "77330"}], "id": "stop_area:DUA:SA:48:5455"}, {"comment": "", "name": "Coste et Bellonte", "coord": {"lat": "48.756473", "lon": "2.691287"}, "administrative_regions": [{"id": "admin:77350", "level": 8, "name": "Ozoir-la-Ferri\u00e8re", "coord": {"lat": "48.76236336", "lon": "2.671737169"}, "zip_code": "77330"}], "id": "stop_area:DUA:SA:48:5375"}, {"comment": "", "name": "Albert Einstein", "coord": {"lat": "48.76142", "lon": "2.687175"}, "administrative_regions": [{"id": "admin:77350", "level": 8, "name": "Ozoir-la-Ferri\u00e8re", "coord": {"lat": "48.76236336", "lon": "2.671737169"}, "zip_code": "77330"}], "id": "stop_area:DUA:SA:48:5381"}, {"comment": "", "name": "Schuman", "coord": {"lat": "48.761375", "lon": "2.6871"}, "administrative_regions": [{"id": "admin:77350", "level": 8, "name": "Ozoir-la-Ferri\u00e8re", "coord": {"lat": "48.76236336", "lon": "2.671737169"}, "zip_code": "77330"}], "id": "stop_area:DUA:SA:48:5441"}, {"comment": "", "name": "Tessan", "coord": {"lat": "48.762633", "lon": "2.690119"}, "administrative_regions": [{"id": "admin:77350", "level": 8, "name": "Ozoir-la-Ferri\u00e8re", "coord": {"lat": "48.76236336", "lon": "2.671737169"}, "zip_code": "77330"}], "id": "stop_area:DUA:SA:48:7283"}, {"comment": "", "name": "Coll\u00e8ge G\u00e9rard Philipe", "coord": {"lat": "48.76554", "lon": "2.67676"}, "administrative_regions": [{"id": "admin:77350", "level": 8, "name": "Ozoir-la-Ferri\u00e8re", "coord": {"lat": "48.76236336", "lon": "2.671737169"}, "zip_code": "77330"}], "id": "stop_area:DUA:SA:48:5120"}, {"comment": "", "name": "Eglise", "coord": {"lat": "48.64732", "lon": "2.961017"}, "administrative_regions": [{"id": "admin:77135", "level": 8, "name": "Courpalay", "coord": {"lat": "48.64737503", "lon": "2.96067622"}, "zip_code": "77540"}], "id": "stop_area:DUA:SA:48:5095"}, {"comment": "", "name": "Le Lavoir", "coord": {"lat": "48.646715", "lon": "2.962298"}, "administrative_regions": [{"id": "admin:77135", "level": 8, "name": "Courpalay", "coord": {"lat": "48.64737503", "lon": "2.96067622"}, "zip_code": "77540"}], "id": "stop_area:DUA:SA:52:1692"}, {"comment": "", "name": "D49A / D201", "coord": {"lat": "48.647987", "lon": "2.958176"}, "administrative_regions": [{"id": "admin:77135", "level": 8, "name": "Courpalay", "coord": {"lat": "48.64737503", "lon": "2.96067622"}, "zip_code": "77540"}], "id": "stop_area:DUA:SA:52:1679"}, {"comment": "", "name": "Changeard", "coord": {"lat": "48.650276", "lon": "2.961222"}, "administrative_regions": [{"id": "admin:77135", "level": 8, "name": "Courpalay", "coord": {"lat": "48.64737503", "lon": "2.96067622"}, "zip_code": "77540"}], "id": "stop_area:DUA:SA:52:14854"}, {"comment": "", "name": "Lyc\u00e9e de la Tour des Dames", "coord": {"lat": "48.67781", "lon": "2.968767"}, "administrative_regions": [{"id": "admin:77393", "level": 8, "name": "Rozay-en-Brie", "coord": {"lat": "48.68363826", "lon": "2.956929975"}, "zip_code": "77540"}], "id": "stop_area:DUA:SA:48:5000"}, {"comment": "", "name": "Lavoir", "coord": {"lat": "48.683226", "lon": "2.95426"}, "administrative_regions": [{"id": "admin:77393", "level": 8, "name": "Rozay-en-Brie", "coord": {"lat": "48.68363826", "lon": "2.956929975"}, "zip_code": "77540"}], "id": "stop_area:DUA:SA:48:5545"}, {"comment": "", "name": "Coll\u00e8ge Les Remparts", "coord": {"lat": "48.683904", "lon": "2.960458"}, "administrative_regions": [{"id": "admin:77393", "level": 8, "name": "Rozay-en-Brie", "coord": {"lat": "48.68363826", "lon": "2.956929975"}, "zip_code": "77540"}], "id": "stop_area:DUA:SA:52:4418"}, {"comment": "", "name": "St Nicolas", "coord": {"lat": "48.681484", "lon": "2.959084"}, "administrative_regions": [{"id": "admin:77393", "level": 8, "name": "Rozay-en-Brie", "coord": {"lat": "48.68363826", "lon": "2.956929975"}, "zip_code": "77540"}], "id": "stop_area:DUA:SA:48:5553"}, {"comment": "", "name": "Maladrerie", "coord": {"lat": "48.684297", "lon": "2.963585"}, "administrative_regions": [{"id": "admin:77393", "level": 8, "name": "Rozay-en-Brie", "coord": {"lat": "48.68363826", "lon": "2.956929975"}, "zip_code": "77540"}], "id": "stop_area:DUA:SA:48:5551"}, {"comment": "", "name": "Stade", "coord": {"lat": "48.680788", "lon": "2.963333"}, "administrative_regions": [{"id": "admin:77393", "level": 8, "name": "Rozay-en-Brie", "coord": {"lat": "48.68363826", "lon": "2.956929975"}, "zip_code": "77540"}], "id": "stop_area:DUA:SA:52:4436"}, {"comment": "", "name": "N4 / Bernay Vilbert", "coord": {"lat": "48.684093", "lon": "2.936927"}, "administrative_regions": [{"id": "admin:77031", "level": 8, "name": "Bernay-Vilbert", "coord": {"lat": "48.67613311", "lon": "2.93783626"}, "zip_code": "77540"}], "id": "stop_area:DUA:SA:48:5007"}, {"comment": "", "name": "Mairie", "coord": {"lat": "48.675246", "lon": "2.938081"}, "administrative_regions": [{"id": "admin:77031", "level": 8, "name": "Bernay-Vilbert", "coord": {"lat": "48.67613311", "lon": "2.93783626"}, "zip_code": "77540"}], "id": "stop_area:DUA:SA:52:612"}, {"comment": "", "name": "Zone Industrielle", "coord": {"lat": "48.703334", "lon": "2.883914"}, "administrative_regions": [{"id": "admin:77192", "level": 8, "name": "Fontenay-Tr\u00e9signy", "coord": {"lat": "48.70687202", "lon": "2.870189151"}, "zip_code": "77610"}], "id": "stop_area:DUA:SA:48:5173"}, {"comment": "", "name": "Mairie", "coord": {"lat": "48.706729", "lon": "2.867208"}, "administrative_regions": [{"id": "admin:77192", "level": 8, "name": "Fontenay-Tr\u00e9signy", "coord": {"lat": "48.70687202", "lon": "2.870189151"}, "zip_code": "77610"}], "id": "stop_area:DUA:SA:48:5157"}, {"comment": "", "name": "Coubertin", "coord": {"lat": "48.70963", "lon": "2.870222"}, "administrative_regions": [{"id": "admin:77192", "level": 8, "name": "Fontenay-Tr\u00e9signy", "coord": {"lat": "48.70687202", "lon": "2.870189151"}, "zip_code": "77610"}], "id": "stop_area:DUA:SA:52:14844"}, {"comment": "", "name": "Piscine", "coord": {"lat": "48.711299", "lon": "2.870776"}, "administrative_regions": [{"id": "admin:77192", "level": 8, "name": "Fontenay-Tr\u00e9signy", "coord": {"lat": "48.70687202", "lon": "2.870189151"}, "zip_code": "77610"}], "id": "stop_area:DUA:SA:48:5167"}, {"comment": "", "name": "Lafayette", "coord": {"lat": "48.703557", "lon": "2.870873"}, "administrative_regions": [{"id": "admin:77192", "level": 8, "name": "Fontenay-Tr\u00e9signy", "coord": {"lat": "48.70687202", "lon": "2.870189151"}, "zip_code": "77610"}], "id": "stop_area:DUA:SA:48:5155"}, {"comment": "", "name": "Les Bordes", "coord": {"lat": "48.705541", "lon": "2.875089"}, "administrative_regions": [{"id": "admin:77192", "level": 8, "name": "Fontenay-Tr\u00e9signy", "coord": {"lat": "48.70687202", "lon": "2.870189151"}, "zip_code": "77610"}], "id": "stop_area:DUA:SA:48:5143"}, {"comment": "", "name": "Coll\u00e8ge Mallarme", "coord": {"lat": "48.702305", "lon": "2.871966"}, "administrative_regions": [{"id": "admin:77192", "level": 8, "name": "Fontenay-Tr\u00e9signy", "coord": {"lat": "48.70687202", "lon": "2.870189151"}, "zip_code": "77610"}], "id": "stop_area:DUA:SA:48:5180"}, {"comment": "", "name": "Michelet", "coord": {"lat": "48.705039", "lon": "2.877678"}, "administrative_regions": [{"id": "admin:77192", "level": 8, "name": "Fontenay-Tr\u00e9signy", "coord": {"lat": "48.70687202", "lon": "2.870189151"}, "zip_code": "77610"}], "id": "stop_area:DUA:SA:48:5161"}, {"comment": "", "name": "Croix St Pierre", "coord": {"lat": "48.715405", "lon": "2.869249"}, "administrative_regions": [{"id": "admin:77277", "level": 8, "name": "Marles-en-Brie", "coord": {"lat": "48.7285357", "lon": "2.879364802"}, "zip_code": "77610"}], "id": "stop_area:DUA:SA:48:5171"}, {"comment": "", "name": "MARLES EN BRIE", "coord": {"lat": "48.734695", "lon": "2.868666"}, "administrative_regions": [{"id": "admin:77229", "level": 8, "name": "La Houssaye-en-Brie", "coord": {"lat": "48.75415421", "lon": "2.874707625"}, "zip_code": "77610"}], "id": "stop_area:DUA:SA:8711622"}, {"comment": "", "name": "MARLES EN BRIE", "coord": {"lat": "48.733669", "lon": "2.867445"}, "administrative_regions": [{"id": "admin:77229", "level": 8, "name": "La Houssaye-en-Brie", "coord": {"lat": "48.75415421", "lon": "2.874707625"}, "zip_code": "77610"}], "id": "stop_area:DUA:SA:52:3011"}, {"comment": "", "name": "Gare SNCF", "coord": {"lat": "48.734493", "lon": "2.868221"}, "administrative_regions": [{"id": "admin:77229", "level": 8, "name": "La Houssaye-en-Brie", "coord": {"lat": "48.75415421", "lon": "2.874707625"}, "zip_code": "77610"}], "id": "stop_area:DUA:SA:9:1470"}, {"comment": "", "name": "Caron", "coord": {"lat": "48.728257", "lon": "2.870746"}, "administrative_regions": [{"id": "admin:77277", "level": 8, "name": "Marles-en-Brie", "coord": {"lat": "48.7285357", "lon": "2.879364802"}, "zip_code": "77610"}], "id": "stop_area:DUA:SA:48:5307"}, {"comment": "", "name": "Mairie", "coord": {"lat": "48.72855", "lon": "2.87939"}, "administrative_regions": [{"id": "admin:77277", "level": 8, "name": "Marles-en-Brie", "coord": {"lat": "48.7285357", "lon": "2.879364802"}, "zip_code": "77610"}], "id": "stop_area:DUA:SA:48:5311"}, {"comment": "", "name": "Square du Marchais", "coord": {"lat": "48.728444", "lon": "2.884797"}, "administrative_regions": [{"id": "admin:77277", "level": 8, "name": "Marles-en-Brie", "coord": {"lat": "48.7285357", "lon": "2.879364802"}, "zip_code": "77610"}], "id": "stop_area:DUA:SA:48:5163"}, {"comment": "", "name": "Coll\u00e8ge Hutinel", "coord": {"lat": "48.739303", "lon": "2.747649"}, "administrative_regions": [{"id": "admin:77215", "level": 8, "name": "Gretz-Armainvilliers", "coord": {"lat": "48.73980428", "lon": "2.738930903"}, "zip_code": "77220"}], "id": "stop_area:DUA:SA:48:5100"}, {"comment": "", "name": "GRETZ ARMAINVILLIERS", "coord": {"lat": "48.745621", "lon": "2.728746"}, "administrative_regions": [{"id": "admin:77215", "level": 8, "name": "Gretz-Armainvilliers", "coord": {"lat": "48.73980428", "lon": "2.738930903"}, "zip_code": "77220"}], "id": "stop_area:DUA:SA:8711601"}, {"comment": "", "name": "HLM", "coord": {"lat": "48.736026", "lon": "2.737418"}, "administrative_regions": [{"id": "admin:77215", "level": 8, "name": "Gretz-Armainvilliers", "coord": {"lat": "48.73980428", "lon": "2.738930903"}, "zip_code": "77220"}], "id": "stop_area:DUA:SA:48:5193"}, {"comment": "", "name": "Poirier Rouge", "coord": {"lat": "48.773923", "lon": "2.685491"}, "administrative_regions": [{"id": "admin:77350", "level": 8, "name": "Ozoir-la-Ferri\u00e8re", "coord": {"lat": "48.76236336", "lon": "2.671737169"}, "zip_code": "77330"}], "id": "stop_area:DUA:SA:48:5431"}, {"comment": "", "name": "Peri", "coord": {"lat": "48.776015", "lon": "2.683234"}, "administrative_regions": [{"id": "admin:77350", "level": 8, "name": "Ozoir-la-Ferri\u00e8re", "coord": {"lat": "48.76236336", "lon": "2.671737169"}, "zip_code": "77330"}], "id": "stop_area:DUA:SA:48:6095"}, {"comment": "", "name": "Marceau", "coord": {"lat": "48.778102", "lon": "2.681025"}, "administrative_regions": [{"id": "admin:77350", "level": 8, "name": "Ozoir-la-Ferri\u00e8re", "coord": {"lat": "48.76236336", "lon": "2.671737169"}, "zip_code": "77330"}], "id": "stop_area:DUA:SA:48:5421"}, {"comment": "", "name": "HLM", "coord": {"lat": "48.778383", "lon": "2.679952"}, "administrative_regions": [{"id": "admin:77350", "level": 8, "name": "Ozoir-la-Ferri\u00e8re", "coord": {"lat": "48.76236336", "lon": "2.671737169"}, "zip_code": "77330"}], "id": "stop_area:DUA:SA:48:5387"}, {"comment": "", "name": "Margotins", "coord": {"lat": "48.775441", "lon": "2.67794"}, "administrative_regions": [{"id": "admin:77350", "level": 8, "name": "Ozoir-la-Ferri\u00e8re", "coord": {"lat": "48.76236336", "lon": "2.671737169"}, "zip_code": "77330"}], "id": "stop_area:DUA:SA:48:5423"}, {"comment": "", "name": "Gruet", "coord": {"lat": "48.772458", "lon": "2.675888"}, "administrative_regions": [{"id": "admin:77350", "level": 8, "name": "Ozoir-la-Ferri\u00e8re", "coord": {"lat": "48.76236336", "lon": "2.671737169"}, "zip_code": "77330"}], "id": "stop_area:DUA:SA:48:5385"}, {"comment": "", "name": "Aristide Briand", "coord": {"lat": "48.768134", "lon": "2.673276"}, "administrative_regions": [{"id": "admin:77350", "level": 8, "name": "Ozoir-la-Ferri\u00e8re", "coord": {"lat": "48.76236336", "lon": "2.671737169"}, "zip_code": "77330"}], "id": "stop_area:DUA:SA:48:5353"}, {"comment": "", "name": "Leclerc", "coord": {"lat": "48.764706", "lon": "2.67288"}, "administrative_regions": [{"id": "admin:77350", "level": 8, "name": "Ozoir-la-Ferri\u00e8re", "coord": {"lat": "48.76236336", "lon": "2.671737169"}, "zip_code": "77330"}], "id": "stop_area:DUA:SA:48:5405"}, {"comment": "", "name": "Mairie", "coord": {"lat": "48.762171", "lon": "2.672775"}, "administrative_regions": [{"id": "admin:77350", "level": 8, "name": "Ozoir-la-Ferri\u00e8re", "coord": {"lat": "48.76236336", "lon": "2.671737169"}, "zip_code": "77330"}], "id": "stop_area:DUA:SA:48:5417"}, {"comment": "", "name": "Stade", "coord": {"lat": "48.76227", "lon": "2.679227"}, "administrative_regions": [{"id": "admin:77350", "level": 8, "name": "Ozoir-la-Ferri\u00e8re", "coord": {"lat": "48.76236336", "lon": "2.671737169"}, "zip_code": "77330"}], "id": "stop_area:DUA:SA:48:5447"}, {"comment": "", "name": "Ombrages", "coord": {"lat": "48.737498", "lon": "2.713431"}, "administrative_regions": [{"id": "admin:77215", "level": 8, "name": "Gretz-Armainvilliers", "coord": {"lat": "48.73980428", "lon": "2.738930903"}, "zip_code": "77220"}], "id": "stop_area:DUA:SA:48:5197"}, {"comment": "", "name": "Cl\u00e9ment Ader", "coord": {"lat": "48.738317", "lon": "2.717146"}, "administrative_regions": [{"id": "admin:77215", "level": 8, "name": "Gretz-Armainvilliers", "coord": {"lat": "48.73980428", "lon": "2.738930903"}, "zip_code": "77220"}], "id": "stop_area:DUA:SA:48:5185"}, {"comment": "", "name": "Victor Hugo", "coord": {"lat": "48.739637", "lon": "2.723197"}, "administrative_regions": [{"id": "admin:77215", "level": 8, "name": "Gretz-Armainvilliers", "coord": {"lat": "48.73980428", "lon": "2.738930903"}, "zip_code": "77220"}], "id": "stop_area:DUA:SA:48:5217"}, {"comment": "", "name": "A Vigny", "coord": {"lat": "48.725374", "lon": "2.843395"}, "administrative_regions": [{"id": "admin:77104", "level": 8, "name": "Ch\u00e2tres", "coord": {"lat": "48.7112804", "lon": "2.809401934"}, "zip_code": "77610"}], "id": "stop_area:DUA:SA:48:7357"}, {"comment": "", "name": "Mairie", "coord": {"lat": "48.711422", "lon": "2.808963"}, "administrative_regions": [{"id": "admin:77104", "level": 8, "name": "Ch\u00e2tres", "coord": {"lat": "48.7112804", "lon": "2.809401934"}, "zip_code": "77610"}], "id": "stop_area:DUA:SA:48:5061"}, {"comment": "", "name": "Villas Patrice", "coord": {"lat": "48.710736", "lon": "2.804129"}, "administrative_regions": [{"id": "admin:77104", "level": 8, "name": "Ch\u00e2tres", "coord": {"lat": "48.7112804", "lon": "2.809401934"}, "zip_code": "77610"}], "id": "stop_area:DUA:SA:48:5057"}, {"comment": "", "name": "Ikea", "coord": {"lat": "48.72584", "lon": "2.837367"}, "administrative_regions": [{"id": "admin:77104", "level": 8, "name": "Ch\u00e2tres", "coord": {"lat": "48.7112804", "lon": "2.809401934"}, "zip_code": "77610"}], "id": "stop_area:DUA:SA:48:7317"}, {"comment": "", "name": "Castorama", "coord": {"lat": "48.726912", "lon": "2.827147"}, "administrative_regions": [{"id": "admin:77104", "level": 8, "name": "Ch\u00e2tres", "coord": {"lat": "48.7112804", "lon": "2.809401934"}, "zip_code": "77610"}], "id": "stop_area:DUA:SA:48:7315"}, {"comment": "", "name": "Conforama", "coord": {"lat": "48.727527", "lon": "2.82093"}, "administrative_regions": [{"id": "admin:77104", "level": 8, "name": "Ch\u00e2tres", "coord": {"lat": "48.7112804", "lon": "2.809401934"}, "zip_code": "77610"}], "id": "stop_area:DUA:SA:48:7313"}, {"comment": "", "name": "Singe Vert", "coord": {"lat": "48.741435", "lon": "2.731283"}, "administrative_regions": [{"id": "admin:77215", "level": 8, "name": "Gretz-Armainvilliers", "coord": {"lat": "48.73980428", "lon": "2.738930903"}, "zip_code": "77220"}], "id": "stop_area:DUA:SA:48:5207"}, {"comment": "", "name": "Monument", "coord": {"lat": "48.742763", "lon": "2.734758"}, "administrative_regions": [{"id": "admin:77215", "level": 8, "name": "Gretz-Armainvilliers", "coord": {"lat": "48.73980428", "lon": "2.738930903"}, "zip_code": "77220"}], "id": "stop_area:DUA:SA:48:5195"}, {"comment": "", "name": "Eglise", "coord": {"lat": "48.739802", "lon": "2.73905"}, "administrative_regions": [{"id": "admin:77215", "level": 8, "name": "Gretz-Armainvilliers", "coord": {"lat": "48.73980428", "lon": "2.738930903"}, "zip_code": "77220"}], "id": "stop_area:DUA:SA:48:5187"}, {"comment": "", "name": "Lyc\u00e9e Cl\u00e9ment Ader", "coord": {"lat": "48.74313", "lon": "2.748399"}, "administrative_regions": [{"id": "admin:77470", "level": 8, "name": "Tournan-en-Brie", "coord": {"lat": "48.738925", "lon": "2.768264027"}, "zip_code": "77220"}], "id": "stop_area:DUA:SA:48:5090"}, {"comment": "", "name": "Stade Laumonde", "coord": {"lat": "48.736172", "lon": "2.717599"}, "administrative_regions": [{"id": "admin:77215", "level": 8, "name": "Gretz-Armainvilliers", "coord": {"lat": "48.73980428", "lon": "2.738930903"},